{"E06000001": [{"Id": "8398", "Name": "TMU Site 9358/1 on link A19 northbound between A689 and A179; GPS Ref: 445251;527898; Northbound", "Description": "9358/1", "Longitude": -1.30034390005691, "Latitude": 54.6441827894577, "Status": "Active"}, {"Id": "8399", "Name": "TMU Site 9359/1 on link A19 southbound between A179 and A689; GPS Ref: 445205;528224; Southbound", "Description": "9359/1", "Longitude": -1.30100633733483, "Latitude": 54.6471162774851, "Status": "Active"}], "E06000002": [{"Id": "8716", "Name": "TMU Site 9316/1 on link A66 eastbound exit for A19; GPS Ref: 447176;518859; Eastbound", "Description": "9316/1", "Longitude": -1.27196687175634, "Latitude": 54.5627836448642, "Status": "Active"}, {"Id": "8715", "Name": "TMU Site 9316/2 on link A66 eastbound within the A19 junction; GPS Ref: 447183;518843; Eastbound", "Description": "9316/2", "Longitude": -1.27186118687614, "Latitude": 54.5626392188707, "Status": "Active"}, {"Id": "8717", "Name": "TMU Site 9317/2 on link A66 westbound within the A19 junction after A19 southbound access; GPS Ref: 447210;518843; Westbound", "Description": "9317/2", "Longitude": -1.27144368615249, "Latitude": 54.5626367095158, "Status": "Active"}, {"Id": "8718", "Name": "TMU Site 9321/3 on link A66 westbound within the A19 junction before A19 southbound access; GPS Ref: 447656;518896; Westbound", "Description": "9321/3", "Longitude": -1.26453864814253, "Latitude": 54.5630713063465, "Status": "Active"}, {"Id": "8394", "Name": "TMU Site 9323/1 on link A19 northbound exit for A66; GPS Ref: 447366;518608; Northbound", "Description": "9323/1", "Longitude": -1.26906915299207, "Latitude": 54.5605104788539, "Status": "Active"}, {"Id": "8393", "Name": "TMU Site 9323/2 on link A19 northbound within the A66 junction; GPS Ref: 447382;518605; Northbound", "Description": "9323/2", "Longitude": -1.2688222395529, "Latitude": 54.5604820284073, "Status": "Active"}, {"Id": "8392", "Name": "TMU Site 9324/1 on link A19 southbound access from A66; GPS Ref: 447397;518555; Southbound", "Description": "9324/1", "Longitude": -1.26859833137258, "Latitude": 54.5600313299436, "Status": "Active"}, {"Id": "8391", "Name": "TMU Site 9324/2 on link A19 southbound within the A66 junction after A66 westbound exit; GPS Ref: 447382;518561; Southbound", "Description": "9324/2", "Longitude": -1.26882929862423, "Latitude": 54.5600866454728, "Status": "Active"}, {"Id": "8390", "Name": "TMU Site 9325/1 on link A19 southbound exit for A1130; GPS Ref: 447111;517469; Southbound", "Description": "9325/1", "Longitude": -1.2731937730038, "Latitude": 54.5502990210954, "Status": "Active"}, {"Id": "8389", "Name": "TMU Site 9325/2 on link A19 southbound within the A1130 junction; GPS Ref: 447093;517477; Southbound", "Description": "9325/2", "Longitude": -1.27347074502585, "Latitude": 54.5503725807096, "Status": "Active"}, {"Id": "8388", "Name": "TMU Site 9326/1 on link A19 northbound exit for A1130; GPS Ref: 446922;517107; Northbound", "Description": "9326/1", "Longitude": -1.27617296322618, "Latitude": 54.5470634839653, "Status": "Active"}, {"Id": "8387", "Name": "TMU Site 9326/2 on link A19 northbound within the A1130 junction; GPS Ref: 446942;517101; Northbound", "Description": "9326/2", "Longitude": -1.27586477675076, "Latitude": 54.5470077178143, "Status": "Active"}, {"Id": "8386", "Name": "TMU Site 9327/1 on link A19 southbound exit for A174; GPS Ref: 446726;515454; Southbound", "Description": "9327/1", "Longitude": -1.27946449633629, "Latitude": 54.5322268895812, "Status": "Active"}, {"Id": "8385", "Name": "TMU Site 9327/2 on link A19 southbound within the A174 junction; GPS Ref: 446704;515452; Southbound", "Description": "9327/2", "Longitude": -1.27980474498337, "Latitude": 54.5322109394611, "Status": "Active"}, {"Id": "8384", "Name": "TMU Site 9328/1 on link A19 northbound exit for A174; GPS Ref: 446643;514816; Northbound", "Description": "9328/1", "Longitude": -1.28084781290373, "Latitude": 54.5265011201046, "Status": "Active"}, {"Id": "8383", "Name": "TMU Site 9328/2 on link A19 northbound within the A174 junction; GPS Ref: 446667;514818; Northbound", "Description": "9328/2", "Longitude": -1.28047671330179, "Latitude": 54.5265168898576, "Status": "Active"}, {"Id": "8368", "Name": "TMU Site 9329/1 on link A174 eastbound between A19 and A1044; GPS Ref: 447235;515054; Eastbound", "Description": "9329/1", "Longitude": -1.27166373010981, "Latitude": 54.528585207424904, "Status": "Active"}, {"Id": "9132", "Name": "TMU Site 9330/1 on link A174 westbound access from A1044; GPS Ref: 447936;514911; Westbound", "Description": "9330/1", "Longitude": -1.26085622502158, "Latitude": 54.5272344611798, "Status": "Active"}, {"Id": "9131", "Name": "TMU Site 9330/2 on link A174 westbound between A1032 and A1044; GPS Ref: 447937;514936; Westbound", "Description": "9330/2", "Longitude": -1.26083672242164, "Latitude": 54.5274590218797, "Status": "Active"}], "E06000003": [{"Id": "8369", "Name": "TMU Site 9331/1 on link A174 eastbound between A171 and A1053; GPS Ref: 455630;517925; Eastbound", "Description": "9331/1", "Longitude": -1.14142024068783, "Latitude": 54.5535341523073, "Status": "Active"}, {"Id": "8370", "Name": "TMU Site 9332/1 on link A174 westbound between A1053 and A171; GPS Ref: 455603;517872; Westbound", "Description": "9332/1", "Longitude": -1.14184764365872, "Latitude": 54.5530608622854, "Status": "Active"}, {"Id": "8365", "Name": "TMU Site 9333/1 on link A1053 northbound between A174 and A1085; GPS Ref: 455914;520337; Northbound", "Description": "9333/1", "Longitude": -1.13657236512372, "Latitude": 54.5751768549971, "Status": "Active"}, {"Id": "8364", "Name": "TMU Site 9334/1 on link A1053 southbound at a minor junction between A1085 and A174; GPS Ref: 456153;520038; Southbound", "Description": "9334/1", "Longitude": -1.13293266615685, "Latitude": 54.5724636668749, "Status": "Active"}], "E06000004": [{"Id": "7100", "Name": "TAME Site 30361548 on link A66 eastbound exit at a minor junction between A1045/A1130 and A19; GPS Ref: 446418;518540; Eastbound", "Description": "30361548", "Longitude": -1.28373802155911, "Latitude": 54.559986959604, "Status": "Active"}, {"Id": "7101", "Name": "TAME Site 30361549 on link A66 westbound access at a minor junction between A19 and A1045/A1130; GPS Ref: 446439;518477; Westbound", "Description": "30361549", "Longitude": -1.28342322365419, "Latitude": 54.5594189215893, "Status": "Active"}, {"Id": "7102", "Name": "TAME Site 30361550 on link A66 eastbound access at a minor junction between A1045/A1130 and A19; GPS Ref: 446713;518633; Eastbound", "Description": "30361550", "Longitude": -1.27916201826647, "Latitude": 54.5607956107091, "Status": "Active"}, {"Id": "7103", "Name": "TAME Site 30361551 on link A66 westbound exit at a minor junction between A19 and A1045/A1130; GPS Ref: 446729;518603; Westbound", "Description": "30361551", "Longitude": -1.27891936753933, "Latitude": 54.5605245589587, "Status": "Active"}, {"Id": "8713", "Name": "TMU Site 9312/1 on link A66 eastbound between A1150 and A135; GPS Ref: 436239;516395; Eastbound", "Description": "9312/1", "Longitude": -1.44139302072428, "Latitude": 54.5415388396611, "Status": "Active"}, {"Id": "8712", "Name": "TMU Site 9313/1 on link A66 westbound between A135 and A1150; GPS Ref: 436564;516300; Westbound", "Description": "9313/1", "Longitude": -1.43638175321666, "Latitude": 54.5406618708581, "Status": "Active"}, {"Id": "9130", "Name": "TMU Site 9314/1 on link A66 eastbound access from A135; GPS Ref: 443423;517077; Eastbound", "Description": "9314/1", "Longitude": -1.33026217261247, "Latitude": 54.5471050454717, "Status": "Active"}, {"Id": "9129", "Name": "TMU Site 9314/2 on link A66 eastbound within the A135 junction; GPS Ref: 443427;517061; Eastbound", "Description": "9314/2", "Longitude": -1.33020269585515, "Latitude": 54.5469609242877, "Status": "Active"}, {"Id": "8714", "Name": "TMU Site 9315/1 on link A66 westbound between A135 near Stockton (east) and A135 near Stockton (west); GPS Ref: 444193;517779; Westbound", "Description": "9315/1", "Longitude": -1.31825505980527, "Latitude": 54.5533469931097, "Status": "Active"}, {"Id": "8382", "Name": "TMU Site 9335/1 on link A19 southbound between A174 and A67; GPS Ref: 446083;512558; Southbound", "Description": "9335/1", "Longitude": -1.28985139408581, "Latitude": 54.506261239191, "Status": "Active"}, {"Id": "8397", "Name": "TMU Site 9360/1 on link A19 northbound between A1027 and A689; GPS Ref: 444227;523650; Northbound", "Description": "9360/1", "Longitude": -1.31684931580249, "Latitude": 54.6061010952667, "Status": "Active"}, {"Id": "8396", "Name": "TMU Site 9361/1 on link A19 southbound between A689 and A1027; GPS Ref: 444238;525128; Southbound", "Description": "9361/1", "Longitude": -1.31645695530627, "Latitude": 54.6193814204787, "Status": "Active"}, {"Id": "9226", "Name": "TMU Site 9483/1 on link A19 southbound access from A1046; GPS Ref: 447120;520393; Southbound", "Description": "9483/1", "Longitude": -1.27258791419017, "Latitude": 54.5765733212599, "Status": "Active"}, {"Id": "9227", "Name": "TMU Site 9484/1 on link A19 southbound within the A1046 junction; GPS Ref: 446614;520590; Southbound", "Description": "9484/1", "Longitude": -1.28038374664768, "Latitude": 54.5783902752351, "Status": "Active"}], "E06000005": [{"Id": "7113", "Name": "TAME Site 30361561 on link A66 eastbound between A66(M) and A67 near Darlington (south); GPS Ref: 427060;512554; Eastbound", "Description": "30361561", "Longitude": -1.58361329619394, "Latitude": 54.5075925344839, "Status": "Active"}, {"Id": "8678", "Name": "TMU Site 9291/1 on link A1(M) southbound between J58 and J57; GPS Ref: 425953;517221; Southbound", "Description": "9291/1", "Longitude": -1.60030001358802, "Latitude": 54.5495904026029, "Status": "Active"}, {"Id": "8330", "Name": "TMU Site 9292/1 on link A1(M) J58 northbound exit; GPS Ref: 426226;517796; Northbound", "Description": "9292/1", "Longitude": -1.59602856972431, "Latitude": 54.5547435834233, "Status": "Active"}, {"Id": "8679", "Name": "TMU Site 9292/2 on link A1(M) northbound within J58; GPS Ref: 426248;517795; Northbound", "Description": "9292/2", "Longitude": -1.5956885134629, "Latitude": 54.5547334641245, "Status": "Active"}, {"Id": "8332", "Name": "TMU Site 9293/1 on link A1(M) J58 southbound exit; GPS Ref: 426453;518098; Southbound", "Description": "9293/1", "Longitude": -1.59249181858199, "Latitude": 54.5574457410587, "Status": "Active"}, {"Id": "8331", "Name": "TMU Site 9293/2 on link A1(M) southbound within J58; GPS Ref: 426436;518108; Southbound", "Description": "9293/2", "Longitude": -1.59275377937537, "Latitude": 54.5575364881881, "Status": "Active"}, {"Id": "8708", "Name": "TMU Site 9310/1 on link A66 westbound between A67 near Darlington (east) and A67 near Darlington (south); GPS Ref: 430022;512391; Westbound", "Description": "9310/1", "Longitude": -1.53788732454125, "Latitude": 54.5059617983981, "Status": "Active"}, {"Id": "8709", "Name": "TMU Site 9310/2 on link A66 eastbound between A67 near Darlington (south) and A67 near Darlington (east); GPS Ref: 430021;512396; Eastbound", "Description": "9310/2", "Longitude": -1.53790226009293, "Latitude": 54.5060067903154, "Status": "Active"}, {"Id": "8711", "Name": "TMU Site 9311/1 on link A66 westbound between A1150 and A67 near Darlington (east); GPS Ref: 432687;515016; Westbound", "Description": "9311/1", "Longitude": -1.49644373738963, "Latitude": 54.5293873349751, "Status": "Active"}, {"Id": "8710", "Name": "TMU Site 9311/2 on link A66 eastbound between A67 near Darlington (east) and B6279; GPS Ref: 432682;515016; Eastbound", "Description": "9311/2", "Longitude": -1.4965209925266, "Latitude": 54.5293876561189, "Status": "Active"}], "E06000006": [], "E06000007": [], "E06000008": [], "E06000009": [], "E06000010": [{"Id": "6865", "Name": "TAME Site 30361334 on link A63 eastbound between A1166 and A1079; GPS Ref: 507991;427323; Eastbound", "Description": "30361334", "Longitude": -0.36452510439848, "Latitude": 53.7311510200929, "Status": "Active"}, {"Id": "6866", "Name": "TAME Site 30361335 on link A63 westbound between A1079 and A1166; GPS Ref: 507994;427315; Westbound", "Description": "30361335", "Longitude": -0.364482440571337, "Latitude": 53.7310785251416, "Status": "Active"}, {"Id": "6871", "Name": "TAME Site 30361351 on link A63 eastbound between A15/A1105 and A1166; GPS Ref: 505986;426533; Eastbound", "Description": "30361351", "Longitude": -0.395174380239073, "Latitude": 53.7244637980648, "Status": "Active"}, {"Id": "6872", "Name": "TAME Site 30361352 on link A63 westbound between A1166 and A15/A1105; GPS Ref: 505990;426522; Westbound", "Description": "30361352", "Longitude": -0.39511754296178, "Latitude": 53.7243641571481, "Status": "Active"}, {"Id": "6886", "Name": "TAME Site 30361371 on link A63 eastbound between A1079 and A1165; GPS Ref: 509501;428452; Eastbound", "Description": "30361371", "Longitude": -0.341247331085138, "Latitude": 53.740979981021, "Status": "Active"}, {"Id": "6887", "Name": "TAME Site 30361372 on link A63 westbound between A1165 and A1079; GPS Ref: 509902;428429; Westbound", "Description": "30361372", "Longitude": -0.335178468953776, "Latitude": 53.7406891047368, "Status": "Active"}, {"Id": "7046", "Name": "TAME Site 30361473 on link A63 eastbound between A1166 and A1079; GPS Ref: 508898;428149; Eastbound", "Description": "30361473", "Longitude": -0.350492300548118, "Latitude": 53.7383838077947, "Status": "Active"}, {"Id": "7047", "Name": "TAME Site 30361474 on link A63 westbound between A1079 and A1166; GPS Ref: 508902;428138; Westbound", "Description": "30361474", "Longitude": -0.350435556099641, "Latitude": 53.7382841456318, "Status": "Active"}, {"Id": "7048", "Name": "TAME Site 30361475 on link A63 westbound between A1079 and A1166; GPS Ref: 508378;427479; Westbound", "Description": "30361475", "Longitude": -0.358606930454476, "Latitude": 53.7324724417408, "Status": "Active"}, {"Id": "7051", "Name": "TAME Site 30361478 on link A1033 eastbound between A63 and Hedon; GPS Ref: 512629;429287; Eastbound", "Description": "30361478", "Longitude": -0.293540271767992, "Latitude": 53.7478164464337, "Status": "Active"}, {"Id": "7151", "Name": "TAME Site 30361684 on link A1033 westbound between Hedon and A63; GPS Ref: 512629;429274; Westbound", "Description": "30361684", "Longitude": -0.293545005445166, "Latitude": 53.747699654321, "Status": "Active"}, {"Id": "9370", "Name": "TMU Site 7070/1 on A63 westbound exit for A1033 North; GPS Ref: 511782;429197; Westbound", "Description": "7070/1", "Longitude": -0.306410701221611, "Latitude": 53.7471898975446, "Status": "Active"}, {"Id": "9371", "Name": "TMU Site 7070/2 on A63 westbound between A1033 and A1165; GPS Ref: 511777;429210; Westbound", "Description": "7070/2", "Longitude": -0.306481786844649, "Latitude": 53.7473077613351, "Status": "Active"}, {"Id": "9372", "Name": "TMU Site 7071/1 on A63 eastbound exit for A1033 North; GPS Ref: 511216;429009; Eastbound", "Description": "7071/1", "Longitude": -0.315057027871688, "Latitude": 53.7456217373454, "Status": "Active"}, {"Id": "9373", "Name": "TMU Site 7071/2 on A63 eastbound between A1165 and A1033 South; GPS Ref: 511158;428954; Eastbound", "Description": "7071/2", "Longitude": -0.315955853931674, "Latitude": 53.7451399556961, "Status": "Active"}, {"Id": "8573", "Name": "TMU Site 8810/1 on A63 eastbound exit for A1166; GPS Ref: 507147;426934; Eastbound", "Description": "8810/1", "Longitude": -0.377447550917463, "Latitude": 53.7278298384161, "Status": "Active"}, {"Id": "8572", "Name": "TMU Site 8810/2 on A63 eastbound within the A1166 junction; GPS Ref: 507154;426921; Eastbound", "Description": "8810/2", "Longitude": -0.377345996748734, "Latitude": 53.7277116052766, "Status": "Active"}, {"Id": "8575", "Name": "TMU Site 8811/1 on A63 westbound exit for A1166; GPS Ref: 507520;427078; Westbound", "Description": "8811/1", "Longitude": -0.371746502319304, "Latitude": 53.729046984803, "Status": "Active"}, {"Id": "8574", "Name": "TMU Site 8811/2 on A63 westbound within the A1166 junction; GPS Ref: 507513;427091; Westbound", "Description": "8811/2", "Longitude": -0.371848043340738, "Latitude": 53.7291652227459, "Status": "Active"}, {"Id": "8581", "Name": "TMU Site 8815/1 on link A63 westbound between A1033 and A1165; GPS Ref: 510886;428854; Westbound", "Description": "8815/1", "Longitude": -0.32011414565912, "Latitude": 53.7442993697034, "Status": "Active"}, {"Id": "8580", "Name": "TMU Site 8853/1 on link A63 eastbound between A1079 and A1165; GPS Ref: 510522;428659; Eastbound", "Description": "8853/1", "Longitude": -0.32570051335665, "Latitude": 53.7426246247331, "Status": "Active"}, {"Id": "8569", "Name": "TMU Site 8855/1 on A63 westbound exit at a minor junction between A1166 and A15/A1105; GPS Ref: 504621;426067; Westbound", "Description": "8855/1", "Longitude": -0.416009719717739, "Latitude": 53.7205506035417, "Status": "Active"}, {"Id": "8568", "Name": "TMU Site 8855/2 on A63 westbound at a minor junction between A1166 and A15/A1105; GPS Ref: 504619;426081; Westbound", "Description": "8855/2", "Longitude": -0.416035296714367, "Latitude": 53.7206767957254, "Status": "Active"}, {"Id": "8577", "Name": "TMU Site 8857/1 on A63 eastbound exit at a minor junction between A1166 and A1079; GPS Ref: 508475;427674; Eastbound", "Description": "8857/1", "Longitude": -0.357068880278896, "Latitude": 53.7342042515339, "Status": "Active"}, {"Id": "8576", "Name": "TMU Site 8857/2 on A63 eastbound at a minor junction between A1166 and A1079; GPS Ref: 508481;427671; Eastbound", "Description": "8857/2", "Longitude": -0.356979017050723, "Latitude": 53.7341760528255, "Status": "Active"}, {"Id": "8579", "Name": "TMU Site 8858/1 on A63 westbound exit at a minor junction between A1079 and A1166; GPS Ref: 508677;428043; Westbound", "Description": "8858/1", "Longitude": -0.353878535573485, "Latitude": 53.7374774888442, "Status": "Active"}, {"Id": "8578", "Name": "TMU Site 8858/2 on A63 westbound at a minor junction between A1079 and A1166; GPS Ref: 508673;428050; Westbound", "Description": "8858/2", "Longitude": -0.353936691735208, "Latitude": 53.7375412119431, "Status": "Active"}, {"Id": "9003", "Name": "TMU Site 8877/1 on A63 eastbound between A1166 and A1079; GPS Ref: 509022;428213; Eastbound", "Description": "8877/1", "Longitude": -0.348590674987505, "Latitude": 53.7389329397743, "Status": "Active"}, {"Id": "9002", "Name": "TMU Site 8878/1 on link A63 westbound between A1165 and A1079; GPS Ref: 510553;428676; Westbound", "Description": "8878/1", "Longitude": -0.325224627962809, "Latitude": 53.7427707939457, "Status": "Active"}], "E06000011": [{"Id": "6862", "Name": "TAME Site 30361331 on link A63 westbound between A15/A1105 and A1034; GPS Ref: 499127;426581; Westbound", "Description": "30361331", "Longitude": -0.499071480205782, "Latitude": 53.7262404761247, "Status": "Active"}, {"Id": "6864", "Name": "TAME Site 30361333 on link A63 eastbound between A1034 and A15/A1105; GPS Ref: 499125;426594; Eastbound", "Description": "30361333", "Longitude": -0.499097621004009, "Latitude": 53.7263576627934, "Status": "Active"}, {"Id": "7036", "Name": "TAME Site 30361452 on link A63 eastbound between A1034 and A15/A1105; GPS Ref: 495002;427698; Eastbound", "Description": "30361452", "Longitude": -0.561227265953415, "Latitude": 53.7370444905885, "Status": "Active"}, {"Id": "7037", "Name": "TAME Site 30361453 on link A63 westbound between A15/A1105 and A1034; GPS Ref: 494990;427692; Westbound", "Description": "30361453", "Longitude": -0.561410968718026, "Latitude": 53.7369927639069, "Status": "Active"}, {"Id": "7052", "Name": "TAME Site 30361480 on link A1033 westbound between Hedon and A63; GPS Ref: 516199;428908; Westbound", "Description": "30361480", "Longitude": -0.239574077850059, "Latitude": 53.7436292729686, "Status": "Active"}, {"Id": "7053", "Name": "TAME Site 30361481 on link A1033 eastbound between A63 and Hedon; GPS Ref: 516202;428926; Eastbound", "Description": "30361481", "Longitude": -0.239521853169729, "Latitude": 53.7437903119696, "Status": "Active"}, {"Id": "8586", "Name": "TMU Site 8793/1 on link A63 westbound between A1034 and M62/B1230; GPS Ref: 491956;430373; Westbound", "Description": "8793/1", "Longitude": -0.606595426774649, "Latitude": 53.7616262423473, "Status": "Active"}, {"Id": "8585", "Name": "TMU Site 8794/1 on link A63 eastbound exit for A1034; GPS Ref: 492368;430406; Eastbound", "Description": "8794/1", "Longitude": -0.600337853300694, "Latitude": 53.761849988331, "Status": "Active"}, {"Id": "8584", "Name": "TMU Site 8794/2 on link A63 eastbound within the A1034 junction; GPS Ref: 492368;430391; Eastbound", "Description": "8794/2", "Longitude": -0.600342335066724, "Latitude": 53.7617152082837, "Status": "Active"}, {"Id": "8583", "Name": "TMU Site 8795/1 on link A63 westbound exit for A1034; GPS Ref: 492816;430241; Westbound", "Description": "8795/1", "Longitude": -0.59359374173087, "Latitude": 53.760287914878504, "Status": "Active"}, {"Id": "8582", "Name": "TMU Site 8795/2 on link A63 westbound within the A1034 junction; GPS Ref: 492817;430247; Westbound", "Description": "8795/2", "Longitude": -0.593576776637579, "Latitude": 53.7603416488608, "Status": "Active"}, {"Id": "8571", "Name": "TMU Site 8796/1 on link A63 eastbound exit for A15/A1105; GPS Ref: 501017;426111; Eastbound", "Description": "8796/1", "Longitude": -0.470590061682533, "Latitude": 53.7216550504565, "Status": "Active"}, {"Id": "8570", "Name": "TMU Site 8796/2 on link A63 eastbound within the A15/A1105 junction; GPS Ref: 501011;426096; Eastbound", "Description": "8796/2", "Longitude": -0.470685846392068, "Latitude": 53.7215214364599, "Status": "Active"}, {"Id": "8567", "Name": "TMU Site 8797/1 on link A63 westbound exit for A15/A1105; GPS Ref: 501122;426007; Westbound", "Description": "8797/1", "Longitude": -0.46903336924205, "Latitude": 53.7207002742836, "Status": "Active"}, {"Id": "8566", "Name": "TMU Site 8797/2 on link A63 westbound within the A15/A1105 junction; GPS Ref: 501127;426020; Westbound", "Description": "8797/2", "Longitude": -0.468953382738808, "Latitude": 53.7208161106824, "Status": "Active"}, {"Id": "8565", "Name": "TMU Site 8854/1 on A63 eastbound exit at a minor junction between A15/A1105 and A1166; GPS Ref: 504153;426005; Eastbound", "Description": "8854/1", "Longitude": -0.423119449931076, "Latitude": 53.720086390956, "Status": "Active"}, {"Id": "8564", "Name": "TMU Site 8854/2 on A63 eastbound at a minor junction between A15/A1105 and A1166; GPS Ref: 504156;425996; Eastbound", "Description": "8854/2", "Longitude": -0.423077035732804, "Latitude": 53.7200049327575, "Status": "Active"}], "E06000012": [{"Id": "7056", "Name": "TAME Site 30361484 on link A180 eastbound between A1136 and Grimsby; GPS Ref: 524627;410909; Eastbound", "Description": "30361484", "Longitude": -0.119066553970604, "Latitude": 53.5799968997372, "Status": "Active"}, {"Id": "7057", "Name": "TAME Site 30361485 on link A180 westbound between Grimsby and A1136; GPS Ref: 524625;410897; Westbound", "Description": "30361485", "Longitude": -0.119101530597863, "Latitude": 53.5798895741132, "Status": "Active"}, {"Id": "8563", "Name": "TMU Site 8849/1 on link A180 eastbound between A160 and A1173; GPS Ref: 514362;414308; Eastbound", "Description": "8849/1", "Longitude": -0.272787113300782, "Latitude": 53.6128688081777, "Status": "Active"}, {"Id": "8562", "Name": "TMU Site 8850/1 on link A180 westbound between A1173 and A160; GPS Ref: 514359;414295; Westbound", "Description": "8850/1", "Longitude": -0.272837202555766, "Latitude": 53.612752668637, "Status": "Active"}, {"Id": "8561", "Name": "TMU Site 8851/1 on link A180 eastbound between A1173 and A1136; GPS Ref: 520475;412528; Eastbound", "Description": "8851/1", "Longitude": -0.181120012941785, "Latitude": 53.5955098429323, "Status": "Active"}, {"Id": "8560", "Name": "TMU Site 8852/1 on link A180 westbound between A1136 and A1173; GPS Ref: 520440;412522; Westbound", "Description": "8852/1", "Longitude": -0.181650877039208, "Latitude": 53.5954639694828, "Status": "Active"}], "E06000013": [{"Id": "9608", "Name": "TMU Site 7072/1 on A160 eastbound between A180 and A1077; GPS Ref: 513704;415004; Eastbound", "Description": "7072/1", "Longitude": -0.282474846809726, "Latitude": 53.6192647769192, "Status": "Active"}, {"Id": "9151", "Name": "TMU Site 8751/1 on link A180 eastbound access from M180/A15; GPS Ref: 505318;411167; Eastbound", "Description": "8751/1", "Longitude": -0.410494621667845, "Latitude": 53.5865407378951, "Status": "Active"}, {"Id": "9150", "Name": "TMU Site 8751/2 on link A180 westbound exit for M180/A15; GPS Ref: 505339;411120; Westbound", "Description": "8751/2", "Longitude": -0.410193358393731, "Latitude": 53.5861142367725, "Status": "Active"}, {"Id": "14416", "Name": "TMU Site 9958/1 on A160 eastbound between A1077 and A1173; GPS Ref: 516895;416594; Eastbound", "Description": "9958/1", "Longitude": -0.233661310129345, "Latitude": 53.6328477821142, "Status": "Active"}, {"Id": "14418", "Name": "TMU Site 9959/1 on A160 westbound between A1173 and A1077; GPS Ref: 516901;416578; Westbound", "Description": "9959/1", "Longitude": -0.233576619687453, "Latitude": 53.6327027025723, "Status": "Active"}, {"Id": "14826", "Name": "TMU Site 9966/1 on A160 westbound between A1077 and A180; GPS Ref: 513982;415548; Westbound", "Description": "9966/1", "Longitude": -0.278075256432564, "Latitude": 53.6240917981633, "Status": "Active"}], "E06000014": [{"Id": "7043", "Name": "TAME Site 30361470 on link A64 eastbound exit for A1036; GPS Ref: 457068;447727; Eastbound", "Description": "30361470", "Longitude": -1.13251262431232, "Latitude": 53.92256317001, "Status": "Active"}, {"Id": "7044", "Name": "TAME Site 30361471 on link A64 eastbound within the A1036 junction; GPS Ref: 457068;447696; Eastbound", "Description": "30361471", "Longitude": -1.13251838417224, "Latitude": 53.9222845842882, "Status": "Active"}, {"Id": "7045", "Name": "TAME Site 30361472 on link A64 westbound between A1036 and A1237 near York (south); GPS Ref: 457066;447679; Westbound", "Description": "30361472", "Longitude": -1.13255199288044, "Latitude": 53.9221320311964, "Status": "Active"}, {"Id": "8695", "Name": "TMU Site 9255/1 on link A64 northbound between A1036 and A19; GPS Ref: 459323;448390; Northbound", "Description": "9255/1", "Longitude": -1.09805196849733, "Latitude": 53.9282685732788, "Status": "Active"}, {"Id": "8694", "Name": "TMU Site 9256/1 on link A64 westbound between A19 and A1036; GPS Ref: 459176;448343; Westbound", "Description": "9256/1", "Longitude": -1.10029940836442, "Latitude": 53.9278629807016, "Status": "Active"}, {"Id": "8696", "Name": "TMU Site 9257/1 on link A64 northbound between A19 and A166/A1079; GPS Ref: 463741;449067; Northbound", "Description": "9257/1", "Longitude": -1.03063926197185, "Latitude": 53.9338287376453, "Status": "Active"}, {"Id": "8697", "Name": "TMU Site 9258/1 on link A64 westbound between A166/A1079 and A19; GPS Ref: 462269;448140; Westbound", "Description": "9258/1", "Longitude": -1.05324451079318, "Latitude": 53.9256769063646, "Status": "Active"}, {"Id": "8698", "Name": "TMU Site 9259/1 on link A64 northbound between A166/A1079 and A1237 near York (north); GPS Ref: 464353;453240; Northbound", "Description": "9259/1", "Longitude": -1.0204417325051, "Latitude": 53.9712530182922, "Status": "Active"}, {"Id": "8699", "Name": "TMU Site 9260/1 on link A64 westbound between A1237 near York (north) and A166/A1079; GPS Ref: 464396;453679; Westbound", "Description": "9260/1", "Longitude": -1.01969380949055, "Latitude": 53.9751926311127, "Status": "Active"}], "E06000015": [{"Id": "6607", "Name": "TAME Site 30360778 on link A52 westbound within the A6005 junction near Derby; GPS Ref: 439681;335626; Westbound", "Description": "30360778", "Longitude": -1.41131328494918, "Latitude": 52.9166150737587, "Status": "Active"}, {"Id": "6608", "Name": "TAME Site 30360779 on link A52 eastbound within the A6005 junction near Derby; GPS Ref: 439678;335636; Eastbound", "Description": "30360779", "Longitude": -1.41135668270432, "Latitude": 52.9167051831768, "Status": "Active"}, {"Id": "10690", "Name": "TMU Site 7162/1 on A6 southbound between A5111 and B5010; GPS Ref: 439770;333036; Southbound", "Description": "7162/1", "Longitude": -1.41030510252498, "Latitude": 52.8933273101137, "Status": "Active"}, {"Id": "10691", "Name": "TMU Site 7163/1 on A6 northbound between B5010 and A5111; GPS Ref: 439755;333032; Northbound", "Description": "7163/1", "Longitude": -1.41052853636689, "Latitude": 52.8932924596907, "Status": "Active"}, {"Id": "8488", "Name": "TMU Site 8261/1 on link A50 eastbound exit for A514; GPS Ref: 437558;329488; Eastbound", "Description": "8261/1", "Longitude": -1.44358973298994, "Latitude": 52.8615928345953, "Status": "Active"}, {"Id": "8487", "Name": "TMU Site 8261/2 on link A50 eastbound within the A514 junction; GPS Ref: 437551;329467; Eastbound", "Description": "8261/2", "Longitude": -1.44369610662085, "Latitude": 52.8614045504552, "Status": "Active"}, {"Id": "8499", "Name": "TMU Site 8275/1 on A5111 northbound between A6 and A52; GPS Ref: 438381;334353; Northbound", "Description": "8275/1", "Longitude": -1.43079516695492, "Latitude": 52.9052662946165, "Status": "Active"}, {"Id": "8498", "Name": "TMU Site 8276/1 on link A5111 southbound between A52 and A6 near Derby (north); GPS Ref: 438392;334375; Southbound", "Description": "8276/1", "Longitude": -1.43062904432655, "Latitude": 52.9054632679486, "Status": "Active"}, {"Id": "8468", "Name": "TMU Site 8285/1 on link A38 northbound between A5111 and A52; GPS Ref: 433063;336651; Northbound", "Description": "8285/1", "Longitude": -1.50962662251779, "Latitude": 52.9262746683369, "Status": "Active"}, {"Id": "8467", "Name": "TMU Site 8286/1 on link A38 southbound between A52 and A5111; GPS Ref: 433187;336763; Southbound", "Description": "8286/1", "Longitude": -1.5077707856946, "Latitude": 52.9272738204074, "Status": "Active"}, {"Id": "8469", "Name": "TMU Site 8287/1 on link A38 southbound between A6 and A52; GPS Ref: 433814;337444; Southbound", "Description": "8287/1", "Longitude": -1.49837355291515, "Latitude": 52.9333564598404, "Status": "Active"}, {"Id": "8471", "Name": "TMU Site 8288/1 on link A38 northbound exit for A6; GPS Ref: 434858;339238; Northbound", "Description": "8288/1", "Longitude": -1.48264994255545, "Latitude": 52.9494163246265, "Status": "Active"}, {"Id": "8470", "Name": "TMU Site 8288/2 on link A38 northbound within the A6 junction; GPS Ref: 434864;339228; Northbound", "Description": "8288/2", "Longitude": -1.48256171925507, "Latitude": 52.9493260476909, "Status": "Active"}, {"Id": "9018", "Name": "TMU Site 8289/1 on link A38 southbound exit for A6; GPS Ref: 435233;339436; Southbound", "Description": "8289/1", "Longitude": -1.47704760334588, "Latitude": 52.9511717971075, "Status": "Active"}, {"Id": "8472", "Name": "TMU Site 8289/2 on link A38 southbound within the A6 junction; GPS Ref: 435230;339445; Southbound", "Description": "8289/2", "Longitude": -1.47709127796309, "Latitude": 52.951252893416, "Status": "Active"}, {"Id": "8990", "Name": "TMU Site 8309/1 on link A38 northbound exit for A516 near Derby (north); GPS Ref: 432005;335103; Northbound", "Description": "8309/1", "Longitude": -1.52551538439742, "Latitude": 52.9124237373014, "Status": "Active"}, {"Id": "8989", "Name": "TMU Site 8309/2 on link A38 northbound between A516 near Derby (north) and A5111; GPS Ref: 432026;335096; Northbound", "Description": "8309/2", "Longitude": -1.52520381623419, "Latitude": 52.9123595674414, "Status": "Active"}, {"Id": "8992", "Name": "TMU Site 8310/1 on link A38 southbound access from A516 near Derby (north); GPS Ref: 432033;335042; Southbound", "Description": "8310/1", "Longitude": -1.52510503788272, "Latitude": 52.9118737504627, "Status": "Active"}, {"Id": "8991", "Name": "TMU Site 8310/2 on link A38 southbound between A5111 and A516 near Derby (north); GPS Ref: 432018;335060; Southbound", "Description": "8310/2", "Longitude": -1.52532630709834, "Latitude": 52.9120364420889, "Status": "Active"}, {"Id": "9310", "Name": "TMU Site 9923/1 on A38 southbound between A516 near Derby (south) and A5250; GPS Ref: 431191;333588; Southbound", "Description": "9923/1", "Longitude": -1.53776446115943, "Latitude": 52.8988530782371, "Status": "Active"}, {"Id": "9311", "Name": "TMU Site 9923/2 on A38 northbound between A5250 and A516 near Derby (south); GPS Ref: 431180;333590; Northbound", "Description": "9923/2", "Longitude": -1.53792778561876, "Latitude": 52.8988716912899, "Status": "Active"}, {"Id": "9312", "Name": "TMU Site 9924/1 on link A38 southbound between A61 near Derby and A6; GPS Ref: 435758;339892; Southbound", "Description": "9924/1", "Longitude": -1.46918394412143, "Latitude": 52.9552362184385, "Status": "Active"}, {"Id": "9313", "Name": "TMU Site 9924/2 on link A38 northbound between A6 and A61 near Derby; GPS Ref: 435747;339899; Northbound", "Description": "9924/2", "Longitude": -1.46934690281276, "Latitude": 52.9552998697123, "Status": "Active"}], "E06000016": [{"Id": "8147", "Name": "TMU Site 6541/1 on link A46 northbound between A5630 and A6; GPS Ref: 455973;309145; Northbound", "Description": "6541/1", "Longitude": -1.1735653894415, "Latitude": 52.6771434300167, "Status": "Active"}], "E06000017": [{"Id": "6597", "Name": "TAME Site 30360761 on link A1 northbound between B1081 near Stamford (north) and B668; GPS Ref: 495013;314361; Northbound", "Description": "30360761", "Longitude": -0.594788222180391, "Latitude": 52.7185900522816, "Status": "Active"}, {"Id": "8095", "Name": "TMU Site 6507/1 on link A1 northbound exit for A6121; GPS Ref: 501287;306351; Northbound", "Description": "6507/1", "Longitude": -0.504397827683138, "Latitude": 52.6454699009878, "Status": "Active"}, {"Id": "8094", "Name": "TMU Site 6507/2 on link A1 northbound within the A6121 junction; GPS Ref: 501295;306372; Northbound", "Description": "6507/2", "Longitude": -0.504273193989, "Latitude": 52.6456571328881, "Status": "Active"}, {"Id": "8097", "Name": "TMU Site 6508/1 on link A1 southbound exit for A6121; GPS Ref: 501145;306633; Southbound", "Description": "6508/1", "Longitude": -0.506409536053058, "Latitude": 52.648030663352, "Status": "Active"}, {"Id": "8096", "Name": "TMU Site 6508/2 on link A1 southbound within the A6121 junction; GPS Ref: 501136;306605; Southbound", "Description": "6508/2", "Longitude": -0.506551085376803, "Latitude": 52.6477807074522, "Status": "Active"}, {"Id": "8099", "Name": "TMU Site 6510/1 on link A1 northbound exit for A606; GPS Ref: 500715;307262; Northbound", "Description": "6510/1", "Longitude": -0.512571257658593, "Latitude": 52.6537633181615, "Status": "Active"}, {"Id": "8098", "Name": "TMU Site 6510/2 on link A1 northbound within the A606 junction; GPS Ref: 500728;307285; Northbound", "Description": "6510/2", "Longitude": -0.512372138025147, "Latitude": 52.6539676051128, "Status": "Active"}, {"Id": "8101", "Name": "TMU Site 6511/1 on link A1 southbound exit for A606; GPS Ref: 500621;307570; Southbound", "Description": "6511/1", "Longitude": -0.513866504498621, "Latitude": 52.6565487007014, "Status": "Active"}, {"Id": "8100", "Name": "TMU Site 6511/2 on link A1 southbound within the A606 junction; GPS Ref: 500615;307537; Southbound", "Description": "6511/2", "Longitude": -0.513965227715336, "Latitude": 52.6562532456413, "Status": "Active"}, {"Id": "8102", "Name": "TMU Site 6512/1 on link A1 northbound between A606 and B1081 near Stamford (north); GPS Ref: 499925;308516; Northbound", "Description": "6512/1", "Longitude": -0.523865917439347, "Latitude": 52.6651788143376, "Status": "Active"}, {"Id": "8103", "Name": "TMU Site 6513/1 on link A1 southbound between B668 and B1081 near Stamford (north); GPS Ref: 496832;311817; Southbound", "Description": "6513/1", "Longitude": -0.568615394581517, "Latitude": 52.6954052326412, "Status": "Active"}], "E06000018": [{"Id": "9070", "Name": "TMU Site 6555/1 on A52 eastbound between A6464 and A6514; GPS Ref: 453356;338512; Eastbound", "Description": "6555/1", "Longitude": -1.20748574774665, "Latitude": 52.9413762754487, "Status": "Active"}, {"Id": "9071", "Name": "TMU Site 6555/2 on A52 westbound between A6514 and A6464; GPS Ref: 453358;338508; Westbound", "Description": "6555/2", "Longitude": -1.20745664566449, "Latitude": 52.9413401240352, "Status": "Active"}, {"Id": "8166", "Name": "TMU Site 6556/1 on link A52 eastbound between A6005 near Nottingham and A453; GPS Ref: 455573;338045; Eastbound", "Description": "6556/1", "Longitude": -1.17458075310987, "Latitude": 52.9369545402193, "Status": "Active"}, {"Id": "8165", "Name": "TMU Site 6557/1 on link A52 westbound at a minor junction between A453 and A6005 near Nottingham; GPS Ref: 455565;338037; Westbound", "Description": "6557/1", "Longitude": -1.17470113579869, "Latitude": 52.936883460416, "Status": "Active"}], "E06000019": [{"Id": "6893", "Name": "TAME Site 30360914 on link A49 northbound between A44 near Leominster (north) and A4112; GPS Ref: 350492;259904; Northbound", "Description": "30360914", "Longitude": -2.7263659334582, "Latitude": 52.2351024684308, "Status": "Active"}, {"Id": "6894", "Name": "TAME Site 30360915 on link A49 southbound between A4112 and A44 near Leominster (north); GPS Ref: 350498;259905; Southbound", "Description": "30360915", "Longitude": -2.72627822817284, "Latitude": 52.2351119997405, "Status": "Active"}, {"Id": "6907", "Name": "TAME Site 30360933 on link A49 northbound between A44 near Leominster (south) and A44 near Leominster (north); GPS Ref: 350418;258649; Northbound", "Description": "30360933", "Longitude": -2.72726462802796, "Latitude": 52.2238136102121, "Status": "Active"}, {"Id": "6908", "Name": "TAME Site 30360934 on link A49 southbound between A44 near Leominster (north) and A44 near Leominster (south); GPS Ref: 350427;258649; Southbound", "Description": "30360934", "Longitude": -2.72713288302218, "Latitude": 52.2238144233752, "Status": "Active"}, {"Id": "6909", "Name": "TAME Site 30360935 on link A449 northbound between A40 and M50; GPS Ref: 361219;225783; Northbound", "Description": "30360935", "Longitude": -2.56540937515349, "Latitude": 51.9292090607825, "Status": "Active"}, {"Id": "6910", "Name": "TAME Site 30360936 on link A449 southbound between M50 and A40; GPS Ref: 361223;225771; Southbound", "Description": "30360936", "Longitude": -2.56534984848855, "Latitude": 51.9291014554807, "Status": "Active"}, {"Id": "6918", "Name": "TAME Site 30360944 on link A40 westbound between A4137 and B4164; GPS Ref: 355182;217742; Westbound", "Description": "30360944", "Longitude": -2.65215494207876, "Latitude": 51.8564623131367, "Status": "Active"}, {"Id": "7219", "Name": "TAME Site 30361810 on link A49 southbound between B4399 and A466; GPS Ref: 349904;235579; Southbound", "Description": "30361810", "Longitude": -2.73138731978903, "Latitude": 52.0163704352114, "Status": "Active"}, {"Id": "7220", "Name": "TAME Site 30361811 on link A49 northbound between A466 and B4399; GPS Ref: 349897;235584; Northbound", "Description": "30361811", "Longitude": -2.73149004504103, "Latitude": 52.0164147512088, "Status": "Active"}, {"Id": "8181", "Name": "TMU Site 7018/1 on link A40 eastbound between A49 and A449; GPS Ref: 359627;224951; Eastbound", "Description": "7018/1", "Longitude": -2.58846345477388, "Latitude": 51.921615500349, "Status": "Active"}, {"Id": "7877", "Name": "TMU Site 7019/1 on link A40 westbound between A449 and A49; GPS Ref: 359559;224889; Westbound", "Description": "7019/1", "Longitude": -2.58944487689623, "Latitude": 51.9210531450604, "Status": "Active"}, {"Id": "7875", "Name": "TMU Site 7020/1 on link A40 westbound between A49 and A4137; GPS Ref: 357357;223380; Westbound", "Description": "7020/1", "Longitude": -2.62127427204138, "Latitude": 51.9073218661806, "Status": "Active"}, {"Id": "7876", "Name": "TMU Site 7021/1 on link A40 eastbound between A4137 and A49; GPS Ref: 357768;223804; Eastbound", "Description": "7021/1", "Longitude": -2.61535231352261, "Latitude": 51.9111652191713, "Status": "Active"}, {"Id": "7874", "Name": "TMU Site 7022/1 on link A40 eastbound between Welsh border and B4164; GPS Ref: 353733;216929; Eastbound", "Description": "7022/1", "Longitude": -2.67308369245613, "Latitude": 51.8490343004241, "Status": "Active"}, {"Id": "7873", "Name": "TMU Site 7023/1 on link A40 westbound between B4164 and Welsh border; GPS Ref: 353526;216719; Westbound", "Description": "7023/1", "Longitude": -2.67606030089611, "Latitude": 51.8471290261285, "Status": "Active"}, {"Id": "8189", "Name": "TMU Site 7024/1 on A49 northbound between A40 and A4137; GPS Ref: 355647;224955; Northbound", "Description": "7024/1", "Longitude": -2.64633294378636, "Latitude": 51.9213477046058, "Status": "Active"}, {"Id": "8190", "Name": "TMU Site 7024/2 on A49 southbound between A4137 and A40; GPS Ref: 355650;224960; Southbound", "Description": "7024/2", "Longitude": -2.6462899700006, "Latitude": 51.9213928957061, "Status": "Active"}, {"Id": "8192", "Name": "TMU Site 7025/1 on link A49 northbound between A4137 and A466; GPS Ref: 351461;229419; Northbound", "Description": "7025/1", "Longitude": -2.70782753154911, "Latitude": 51.9611299185897, "Status": "Active"}, {"Id": "8191", "Name": "TMU Site 7025/2 on link A49 southbound between A466 and A4137; GPS Ref: 351466;229420; Southbound", "Description": "7025/2", "Longitude": -2.70775491030131, "Latitude": 51.9611393465238, "Status": "Active"}, {"Id": "8193", "Name": "TMU Site 7026/1 on link A49 southbound between B4399 and A466; GPS Ref: 350212;236046; Southbound", "Description": "7026/1", "Longitude": -2.72696776673976, "Latitude": 52.0205965845409, "Status": "Active"}, {"Id": "10687", "Name": "TMU Site 7026/2 on link A49 northbound between A466 and B4399; GPS Ref: 350202;236049; Northbound", "Description": "7026/2", "Longitude": -2.72711391872753, "Latitude": 52.0206226545636, "Status": "Active"}, {"Id": "8195", "Name": "TMU Site 7028/1 on link A49 southbound between A417 and A4103; GPS Ref: 350212;245003; Southbound", "Description": "7028/1", "Longitude": -2.72827560893959, "Latitude": 52.1011191198436, "Status": "Active"}, {"Id": "8194", "Name": "TMU Site 7028/2 on link A49 northbound between A4103 and A417; GPS Ref: 350207;245003; Northbound", "Description": "7028/2", "Longitude": -2.72834859905209, "Latitude": 52.1011186680991, "Status": "Active"}, {"Id": "8196", "Name": "TMU Site 7029/1 on A49 northbound between B4361 and A44 near Leominster (south); GPS Ref: 350802;256581; Northbound", "Description": "7029/1", "Longitude": -2.72134162158477, "Latitude": 52.2052572241925, "Status": "Active"}, {"Id": "8197", "Name": "TMU Site 7029/2 on A49 southbound between A44 near Leominster (south) and B4361; GPS Ref: 350807;256582; Southbound", "Description": "7029/2", "Longitude": -2.7212686064217, "Latitude": 52.2052666620012, "Status": "Active"}, {"Id": "9014", "Name": "TMU Site 7030/1 on link A49 northbound between A4112 and A456; GPS Ref: 351950;265814; Northbound", "Description": "7030/1", "Longitude": -2.70586203184024, "Latitude": 52.2883616269464, "Status": "Active"}, {"Id": "9015", "Name": "TMU Site 7030/2 on link A49 southbound between A456 and A4112; GPS Ref: 351953;265811; Southbound", "Description": "7030/2", "Longitude": -2.70581762472619, "Latitude": 52.2883349211868, "Status": "Active"}, {"Id": "9084", "Name": "TMU Site 7248/1 on link A49 northbound between A465 and A438 near Hereford (south); GPS Ref: 350745;239452; Northbound", "Description": "7248/1", "Longitude": -2.71969268768606, "Latitude": 52.051263933692, "Status": "Active"}, {"Id": "9085", "Name": "TMU Site 7248/2 on link A49 southbound between A438 near Hereford (north) and A465; GPS Ref: 350750;239450; Southbound", "Description": "7248/2", "Longitude": -2.71961949140948, "Latitude": 52.0512463994414, "Status": "Active"}], "E06000020": [{"Id": "8413", "Name": "TMU Site 7502/1 on A5 northbound between M54 and A49 near Shrewsbury (east); GPS Ref: 361847;310525; Northbound", "Description": "7502/1", "Longitude": -2.56590992201162, "Latitude": 52.6910725032244, "Status": "Active"}], "E06000021": [{"Id": "6810", "Name": "TAME Site 30361219 on link A50 eastbound between A520 and A521 near Cheadle (west); GPS Ref: 393770;341992; Eastbound", "Description": "30361219", "Longitude": -2.09422302860384, "Latitude": 52.9752593086838, "Status": "Active"}, {"Id": "6811", "Name": "TAME Site 30361221 on link A50 westbound between A521 near Cheadle (west) and A520; GPS Ref: 393769;341980; Westbound", "Description": "30361221", "Longitude": -2.09423768680151, "Latitude": 52.9751514266142, "Status": "Active"}, {"Id": "6815", "Name": "TAME Site 30361235 on link A500 northbound between B5045 and A53; GPS Ref: 386773;346201; Northbound", "Description": "30361235", "Longitude": -2.19859510897077, "Latitude": 53.0129657859666, "Status": "Active"}, {"Id": "6816", "Name": "TAME Site 30361236 on link A500 southbound between A53 and B5045; GPS Ref: 386785;346213; Southbound", "Description": "30361236", "Longitude": -2.19841674622344, "Latitude": 53.0130739529439, "Status": "Active"}, {"Id": "6819", "Name": "TAME Site 30361241 on link A50 eastbound between A500 and A5007 near Longton (west); GPS Ref: 388261;343668; Eastbound", "Description": "30361241", "Longitude": -2.1763240853349, "Latitude": 52.9902311545926, "Status": "Active"}, {"Id": "6820", "Name": "TAME Site 30361242 on link A50 westbound between B5490 and A500; GPS Ref: 388168;343648; Westbound", "Description": "30361242", "Longitude": -2.17770877023529, "Latitude": 52.9900493105101, "Status": "Active"}, {"Id": "6821", "Name": "TAME Site 30361245 on link A500 northbound between A50 and A52/A5007; GPS Ref: 387934;344234; Northbound", "Description": "30361245", "Longitude": -2.18121666523091, "Latitude": 52.9953117272956, "Status": "Active"}, {"Id": "6822", "Name": "TAME Site 30361246 on link A500 southbound between A52/A5007 and A50; GPS Ref: 387954;344226; Southbound", "Description": "30361246", "Longitude": -2.18091839016457, "Latitude": 52.9952402667955, "Status": "Active"}, {"Id": "6823", "Name": "TAME Site 30361247 on link A500 northbound between A52/A5007 and A52/A5006; GPS Ref: 387710;345694; Northbound", "Description": "30361247", "Longitude": -2.18460982230825, "Latitude": 53.0084307621354, "Status": "Active"}, {"Id": "6824", "Name": "TAME Site 30361248 on link A500 southbound within the A52/A5006 junction; GPS Ref: 387731;345694; Southbound", "Description": "30361248", "Longitude": -2.1842968534387, "Latitude": 53.0084312465917, "Status": "Active"}, {"Id": "9270", "Name": "TMU Site 7545/1 on link A500 northbound exit for A52/A5007; GPS Ref: 388021;344509; Northbound", "Description": "7545/1", "Longitude": -2.17993071945623, "Latitude": 52.9977857117742, "Status": "Active"}, {"Id": "8431", "Name": "TMU Site 7545/2 on link A500 northbound within the A52/A5007 junction; GPS Ref: 388026;344510; Northbound", "Description": "7545/2", "Longitude": -2.17985625859011, "Latitude": 52.9977948134106, "Status": "Active"}, {"Id": "9090", "Name": "TMU Site 7547/1 on link A500 southbound within the A34 near Stoke-on-Trent (south) junction; GPS Ref: 386861;342866; Southbound", "Description": "7547/1", "Longitude": -2.19714695202194, "Latitude": 52.9829889730792, "Status": "Active"}, {"Id": "9091", "Name": "TMU Site 7548/1 on link A500 northbound within the A34 near Stoke-on-Trent (south) junction; GPS Ref: 386516;342709; Northbound", "Description": "7548/1", "Longitude": -2.20227891281546, "Latitude": 52.9815689934558, "Status": "Active"}, {"Id": "9094", "Name": "TMU Site 7550/3 on A500 southbound within the A50 junction; GPS Ref: 387638;343498; Southbound", "Description": "7550/3", "Longitude": -2.1855983563343, "Latitude": 52.988688868094, "Status": "Active"}, {"Id": "9097", "Name": "TMU Site 7551/2 on link A500 northbound within the A50 junction; GPS Ref: 387631;343506; Northbound", "Description": "7551/2", "Longitude": -2.18570293995702, "Latitude": 52.9887606194888, "Status": "Active"}, {"Id": "8430", "Name": "TMU Site 7552/1 on link A50 northbound access from A5006; GPS Ref: 387692;343603; Northbound", "Description": "7552/1", "Longitude": -2.184797978626, "Latitude": 52.9896339938238, "Status": "Active"}, {"Id": "8428", "Name": "TMU Site 7555/1 on link A50 eastbound distributor between B5490 and A5007 near Longton (west); GPS Ref: 389010;343733; Eastbound", "Description": "7555/1", "Longitude": -2.16516843991729, "Latitude": 52.990831450502, "Status": "Active"}, {"Id": "9350", "Name": "TMU Site 7555/2 on A50 eastbound access from B5490; GPS Ref: 389011;343716; Eastbound", "Description": "7555/2", "Longitude": -2.1651529614195, "Latitude": 52.9906786550224, "Status": "Active"}, {"Id": "8427", "Name": "TMU Site 7555/3 on link A50 eastbound within the B5490 junction; GPS Ref: 389010;343707; Eastbound", "Description": "7555/3", "Longitude": -2.16516755084391, "Latitude": 52.9905977317014, "Status": "Active"}, {"Id": "8429", "Name": "TMU Site 7556/1 on link A50 westbound within the A5007 near Longton (west) junction; GPS Ref: 389743;343784; Westbound", "Description": "7556/1", "Longitude": -2.15425038204295, "Latitude": 52.9913045225896, "Status": "Active"}, {"Id": "8426", "Name": "TMU Site 7559/1 on link A50 westbound exit for A5007 near Longton (east); GPS Ref: 392108;342731; Westbound", "Description": "7559/1", "Longitude": -2.11899205205791, "Latitude": 52.9818792633836, "Status": "Active"}, {"Id": "8425", "Name": "TMU Site 7559/2 on link A50 westbound within the A5007 near Longton (east) junction; GPS Ref: 392110;342740; Westbound", "Description": "7559/2", "Longitude": -2.11896248508297, "Latitude": 52.9819601959227, "Status": "Active"}, {"Id": "8424", "Name": "TMU Site 7560/1 on link A50 eastbound exit for A520; GPS Ref: 392901;342388; Eastbound", "Description": "7560/1", "Longitude": -2.10717335023483, "Latitude": 52.9788071631515, "Status": "Active"}, {"Id": "8423", "Name": "TMU Site 7560/2 on link A50 eastbound within the A520 junction; GPS Ref: 392893;342374; Eastbound", "Description": "7560/2", "Longitude": -2.10729218492767, "Latitude": 52.9786812071011, "Status": "Active"}, {"Id": "8422", "Name": "TMU Site 7561/1 on link A50 westbound exit for A520; GPS Ref: 393391;342129; Westbound", "Description": "7561/1", "Longitude": -2.09987016312028, "Latitude": 52.9764856963304, "Status": "Active"}, {"Id": "8421", "Name": "TMU Site 7561/2 on link A50 westbound within the A520 junction; GPS Ref: 393398;342133; Westbound", "Description": "7561/2", "Longitude": -2.09976599450412, "Latitude": 52.9765217498447, "Status": "Active"}, {"Id": "8419", "Name": "TMU Site 7562/2 on link A50 eastbound within the A521 near Cheadle (west) junction; GPS Ref: 394171;341796; Eastbound", "Description": "7562/2", "Longitude": -2.08824754422464, "Latitude": 52.9735024814173, "Status": "Active"}, {"Id": "9100", "Name": "TMU Site 7563/1 on link A50 westbound exit for A521 near Cheadle (west); GPS Ref: 394365;341506; Westbound", "Description": "7563/1", "Longitude": -2.08535348558044, "Latitude": 52.9708977527991, "Status": "Active"}, {"Id": "9099", "Name": "TMU Site 7563/2 on link A50 westbound within the A521 near Cheadle (west) junction; GPS Ref: 394373;341511; Westbound", "Description": "7563/2", "Longitude": -2.08523445079331, "Latitude": 52.9709427832086, "Status": "Active"}, {"Id": "9016", "Name": "TMU Site 7639/1 on link A50 eastbound exit for A5007 near Longton (east); GPS Ref: 391738;342794; Eastbound", "Description": "7639/1", "Longitude": -2.12450452203709, "Latitude": 52.9824399594703, "Status": "Active"}, {"Id": "8438", "Name": "TMU Site 7639/2 on link A50 eastbound within the A5007 near Longton (east) junction; GPS Ref: 391737;342783; Eastbound", "Description": "7639/2", "Longitude": -2.1245191331536, "Latitude": 52.9823410626928, "Status": "Active"}, {"Id": "8997", "Name": "TMU Site 7651/1 on link A50 westbound between A5007 near Longton (west) and A500; GPS Ref: 388724;343678; Westbound", "Description": "7651/1", "Longitude": -2.16942711726396, "Latitude": 52.9903310599826, "Status": "Active"}, {"Id": "8998", "Name": "TMU Site 7654/1 on A50 westbound within the A5005/A5035 junction; GPS Ref: 391107;343056; Westbound", "Description": "7654/1", "Longitude": -2.13391012647805, "Latitude": 52.9847849499405, "Status": "Active"}, {"Id": "8994", "Name": "TMU Site 7663/1 on A50 eastbound within the A5005/A5035 junction; GPS Ref: 391088;343083; Eastbound", "Description": "7663/1", "Longitude": -2.13419388460255, "Latitude": 52.9850273399992, "Status": "Active"}, {"Id": "9283", "Name": "TMU Site 9907/1 on A50 westbound between A5007 near Longton (east) and A5005/A5035; GPS Ref: 391530;342833; Westbound", "Description": "9907/1", "Longitude": -2.12760358075713, "Latitude": 52.9827872649007, "Status": "Active"}, {"Id": "9284", "Name": "TMU Site 9907/2 on A50 eastbound between A5005/A5035 and A5007 near Longton (east); GPS Ref: 391535;342842; Eastbound", "Description": "9907/2", "Longitude": -2.12752934565512, "Latitude": 52.9828682473645, "Status": "Active"}, {"Id": "9285", "Name": "TMU Site 9908/1 on A50 eastbound between A5007 near Longton (west) and A5005/A5035; GPS Ref: 390103;343770; Eastbound", "Description": "9908/1", "Longitude": -2.14888687918722, "Latitude": 52.9911854881484, "Status": "Active"}, {"Id": "9286", "Name": "TMU Site 9908/2 on A50 westbound between A5005/A5035 and A5007 near Longton (west); GPS Ref: 390100;343756; Westbound", "Description": "9908/2", "Longitude": -2.14893113983972, "Latitude": 52.9910595838327, "Status": "Active"}, {"Id": "9287", "Name": "TMU Site 9909/1 on A500 northbound between A34 near Stoke-on-Trent (south) and A50; GPS Ref: 387227;343179; Northbound", "Description": "9909/1", "Longitude": -2.19170807339683, "Latitude": 52.9858115646195, "Status": "Active"}, {"Id": "9288", "Name": "TMU Site 9909/2 on A500 southbound between A50 and A34 near Stoke-on-Trent (south); GPS Ref: 387240;343167; Southbound", "Description": "9909/2", "Longitude": -2.19151395532618, "Latitude": 52.9857040052905, "Status": "Active"}], "E06000022": [{"Id": "6503", "Name": "TAME Site 30360180 on link A36 northbound between A366 and A4; GPS Ref: 378328;162625; Northbound", "Description": "30360180", "Longitude": -2.31265824721212, "Latitude": 51.3622703791644, "Status": "Active"}, {"Id": "6504", "Name": "TAME Site 30360181 on link A36 southbound between A4 and A366; GPS Ref: 378266;162375; Southbound", "Description": "30360181", "Longitude": -2.31353337107345, "Latitude": 51.3600200901918, "Status": "Active"}, {"Id": "9564", "Name": "TMU Site 5337/1 on A4 westbound between A363 and A46; GPS Ref: 377793;166703; Westbound", "Description": "5337/1", "Longitude": -2.32059862455693, "Latitude": 51.3989173853394, "Status": "Active"}, {"Id": "9565", "Name": "TMU Site 5337/2 on A4 eastbound between A46 and A363; GPS Ref: 377788;166713; Eastbound", "Description": "5337/2", "Longitude": -2.32067112511769, "Latitude": 51.3990071043582, "Status": "Active"}, {"Id": "9582", "Name": "TMU Site 5660/1 on A36 northbound between A366 and A4; GPS Ref: 377859;160049; Northbound", "Description": "5660/1", "Longitude": -2.31923319388236, "Latitude": 51.3390897407954, "Status": "Active"}, {"Id": "9583", "Name": "TMU Site 5660/2 on A36 southbound between A4 and A366; GPS Ref: 377864;160050; Southbound", "Description": "5660/2", "Longitude": -2.31916147884926, "Latitude": 51.3390989281174, "Status": "Active"}, {"Id": "9576", "Name": "TMU Site 5661/1 on A36 northbound between A366 and A4; GPS Ref: 377892;165861; Northbound", "Description": "5661/1", "Longitude": -2.3191228850787, "Latitude": 51.3913503268149, "Status": "Active"}, {"Id": "9577", "Name": "TMU Site 5661/2 on A36 southbound between A4 and A366; GPS Ref: 377895;165863; Southbound", "Description": "5661/2", "Longitude": -2.31907989453528, "Latitude": 51.391368427571, "Status": "Active"}], "E06000023": [{"Id": "7165", "Name": "TAME Site 30360177 on link A4 eastbound between A403 and B4054; GPS Ref: 351810;178490; Eastbound", "Description": "30360177", "Longitude": -2.69568246253412, "Latitude": 51.5032764813358, "Status": "Active"}, {"Id": "7164", "Name": "TAME Site 30360178 on link A4 westbound between B4054 and A403; GPS Ref: 351810;178480; Westbound", "Description": "30360178", "Longitude": -2.69568108850439, "Latitude": 51.5031865749319, "Status": "Active"}], "E06000024": [], "E06000025": [{"Id": "9560", "Name": "TMU Site 5335/1 on A46 northbound between A420 and M4; GPS Ref: 374855;175234; Northbound", "Description": "5335/1", "Longitude": -2.36343824405329, "Latitude": 51.4755007634065, "Status": "Active"}, {"Id": "9561", "Name": "TMU Site 5335/2 on A46 southbound between M4 and A420; GPS Ref: 374857;175232; Southbound", "Description": "5335/2", "Longitude": -2.36340930444528, "Latitude": 51.4754828698145, "Status": "Active"}, {"Id": "9562", "Name": "TMU Site 5336/1 on A46 southbound between A420 and A4; GPS Ref: 374533;171078; Southbound", "Description": "5336/1", "Longitude": -2.36777442120686, "Latitude": 51.438117603444, "Status": "Active"}, {"Id": "9563", "Name": "TMU Site 5336/2 on A46 northbound between A4 and A420; GPS Ref: 374530;171078; Northbound", "Description": "5336/2", "Longitude": -2.367817581256, "Latitude": 51.4381174678555, "Status": "Active"}], "E06000026": [{"Id": "6398", "Name": "TAME Site 30360007 on link A38 westbound between B3413 and B3271 near Plymouth (east); GPS Ref: 244458;58698; Westbound", "Description": "30360007", "Longitude": -4.19031855865247, "Latitude": 50.407499569878, "Status": "Active"}, {"Id": "6399", "Name": "TAME Site 30360008 on link A38 eastbound between B3271 near Plymouth (east) and B3413; GPS Ref: 244458;58711; Eastbound", "Description": "30360008", "Longitude": -4.19032395097471, "Latitude": 50.4076163972871, "Status": "Active"}, {"Id": "6400", "Name": "TAME Site 30360009 on link A38 eastbound within the A374 near Plymouth junction; GPS Ref: 250832;57228; Eastbound", "Description": "30360009", "Longitude": -4.10009636899808, "Latitude": 50.39594192745, "Status": "Active"}, {"Id": "6401", "Name": "TAME Site 30360010 on link A38 eastbound exit for A374 near Plymouth; GPS Ref: 250741;57239; Eastbound", "Description": "30360010", "Longitude": -4.10138020330675, "Latitude": 50.3960176999591, "Status": "Active"}, {"Id": "6402", "Name": "TAME Site 30360011 on link A38 westbound within the A374 near Plymouth junction; GPS Ref: 250806;57214; Westbound", "Description": "30360011", "Longitude": -4.10045637193149, "Latitude": 50.3958095083364, "Status": "Active"}, {"Id": "6403", "Name": "TAME Site 30360012 on link A38 westbound access from A374 near Plymouth; GPS Ref: 250783;57194; Westbound", "Description": "30360012", "Longitude": -4.10077181030166, "Latitude": 50.3956239248818, "Status": "Active"}, {"Id": "6410", "Name": "TAME Site 30360025 on A38 westbound within the A374 near Plymouth junction; GPS Ref: 251217;57009; Westbound", "Description": "30360025", "Longitude": -4.09459655677993, "Latitude": 50.3940712444422, "Status": "Active"}, {"Id": "6411", "Name": "TAME Site 30360027 on link A38 eastbound exit for A374 near Plymouth; GPS Ref: 251328;56971; Eastbound", "Description": "30360027", "Longitude": -4.09302094350376, "Latitude": 50.3937578272609, "Status": "Active"}, {"Id": "14004", "Name": "TAME Site 30362511 on link A38 eastbound within the A374 near Plymouth junction; GPS Ref: 251361;56956; Eastbound", "Description": "30362511", "Longitude": -4.09255105697553, "Latitude": 50.3936313675115, "Status": "Active"}, {"Id": "13997", "Name": "TAME Site 30362512 on link A38 westbound exit for B3413 near Plymouth; GPS Ref: 251230;57013; Westbound", "Description": "30362512", "Longitude": -4.09441537003763, "Latitude": 50.3941104867755, "Status": "Active"}, {"Id": "7373", "Name": "TMU Site 5047/1 on A38 eastbound between A386 and A374 near Plymouth; GPS Ref: 250101;57153; Eastbound", "Description": "5047/1", "Longitude": -4.11034430350359, "Latitude": 50.3950820062428, "Status": "Active"}, {"Id": "7372", "Name": "TMU Site 5048/1 on A38 westbound between A374 near Plymouth and A386; GPS Ref: 249503;57267; Westbound", "Description": "5048/1", "Longitude": -4.11879762760676, "Latitude": 50.3959538232296, "Status": "Active"}, {"Id": "7375", "Name": "TMU Site 5049/1 on link A38 eastbound between A3064 and A386; GPS Ref: 247388;58094; Eastbound", "Description": "5049/1", "Longitude": -4.14886908417076, "Latitude": 50.4028406425811, "Status": "Active"}, {"Id": "7374", "Name": "TMU Site 5050/1 on link A38 westbound between A386 and A3064; GPS Ref: 246908;58205; Westbound", "Description": "5050/1", "Longitude": -4.15566383485644, "Latitude": 50.4037131918174, "Status": "Active"}, {"Id": "7376", "Name": "TMU Site 5052/1 on A38 westbound between A3064 and B3413; GPS Ref: 245927;58901; Westbound", "Description": "5052/1", "Longitude": -4.16974417433595, "Latitude": 50.4097112868317, "Status": "Active"}, {"Id": "7377", "Name": "TMU Site 5052/2 on A38 eastbound between B3413 and A3064; GPS Ref: 245976;58885; Eastbound", "Description": "5052/2", "Longitude": -4.16904850190904, "Latitude": 50.4095803593682, "Status": "Active"}], "E06000027": [], "E06000030": [{"Id": "7446", "Name": "TMU Site 5306/1 on link A419 southbound between B4019 and A361; GPS Ref: 416331;188752; Southbound", "Description": "5306/1", "Longitude": -1.76561304689391, "Latitude": 51.5973802499327, "Status": "Active"}, {"Id": "7445", "Name": "TMU Site 5307/1 on link A419 northbound between A361 and A4311; GPS Ref: 415846;188946; Northbound", "Description": "5307/1", "Longitude": -1.77260625002158, "Latitude": 51.599138356843, "Status": "Active"}, {"Id": "7443", "Name": "TMU Site 5308/1 on link A419 northbound between A4259 and A420; GPS Ref: 419048;185636; Northbound", "Description": "5308/1", "Longitude": -1.72655623485766, "Latitude": 51.569278341463, "Status": "Active"}, {"Id": "7444", "Name": "TMU Site 5309/1 on link A419 southbound between A420 and A4259; GPS Ref: 419529;184167; Southbound", "Description": "5309/1", "Longitude": -1.71969759974715, "Latitude": 51.5560537098778, "Status": "Active"}], "E06000031": [{"Id": "6560", "Name": "TAME Site 30360713 on link A47 eastbound between A1 and A1260; GPS Ref: 510600;299184; Eastbound", "Description": "30360713", "Longitude": -0.369201350029088, "Latitude": 52.5792495014839, "Status": "Active"}, {"Id": "6561", "Name": "TAME Site 30360714 on link A47 westbound between A1260 and A1; GPS Ref: 510600;299170; Westbound", "Description": "30360714", "Longitude": -0.369206015611795, "Latitude": 52.5791236923015, "Status": "Active"}, {"Id": "6564", "Name": "TAME Site 30360717 on link A47 eastbound between A16 and A1139; GPS Ref: 520872;302331; Eastbound", "Description": "30360717", "Longitude": -0.216537095241412, "Latitude": 52.6053441306943, "Status": "Active"}, {"Id": "6565", "Name": "TAME Site 30360718 on link A47 westbound between A1139 and A16; GPS Ref: 520872;302326; Westbound", "Description": "30360718", "Longitude": -0.216538920316767, "Latitude": 52.6052992034282, "Status": "Active"}, {"Id": "6568", "Name": "TAME Site 30360721 on link A47 westbound between B1040 and B1167 near Thorney (west); GPS Ref: 527725;304635; Westbound", "Description": "30360721", "Longitude": -0.114507579641839, "Latitude": 52.6244787659446, "Status": "Active"}, {"Id": "6569", "Name": "TAME Site 30360722 on link A47 eastbound between B1167 near Thorney (west) and B1040; GPS Ref: 527690;304645; Eastbound", "Description": "30360722", "Longitude": -0.115020487369084, "Latitude": 52.6245768415923, "Status": "Active"}, {"Id": "6609", "Name": "TAME Site 30360780 on link A1 southbound between B1081 near Stamford (south) and A47; GPS Ref: 504317;304010; Southbound", "Description": "30360780", "Longitude": -0.460369540437475, "Latitude": 52.6238587639076, "Status": "Active"}, {"Id": "6619", "Name": "TAME Site 30360793 on link A1 southbound between A47 and A605; GPS Ref: 507566;299645; Southbound", "Description": "30360793", "Longitude": -0.413808849530013, "Latitude": 52.583999967349, "Status": "Active"}, {"Id": "8054", "Name": "TMU Site 6351/1 on A47 eastbound between A1139 and B1167 near Thorney (west); GPS Ref: 522784;303080; Eastbound", "Description": "6351/1", "Longitude": -0.188040069836956, "Latitude": 52.611645738874, "Status": "Active"}, {"Id": "8055", "Name": "TMU Site 6351/2 on A47 westbound between B1167 near Thorney (west) and A1139; GPS Ref: 522785;303075; Westbound", "Description": "6351/2", "Longitude": -0.188027163548448, "Latitude": 52.6116005865559, "Status": "Active"}, {"Id": "8052", "Name": "TMU Site 6352/1 on link A47 eastbound between A1260 and A15 near Peterborough (west); GPS Ref: 516253;299071; Eastbound", "Description": "6352/1", "Longitude": -0.285853575150945, "Latitude": 52.5770568539132, "Status": "Active"}, {"Id": "8053", "Name": "TMU Site 6353/1 on link A47 westbound between A15 near Peterborough (west) and A1260; GPS Ref: 516470;299452; Westbound", "Description": "6353/1", "Longitude": -0.282519095531066, "Latitude": 52.580434152253, "Status": "Active"}, {"Id": "8087", "Name": "TMU Site 6502/1 on link A1 northbound exit for A47; GPS Ref: 507452;299848; Northbound", "Description": "6502/1", "Longitude": -0.415424959799212, "Latitude": 52.5858467160328, "Status": "Active"}, {"Id": "8086", "Name": "TMU Site 6502/2 on link A1 northbound within the A47 junction; GPS Ref: 507479;299884; Northbound", "Description": "6502/2", "Longitude": -0.415014929696076, "Latitude": 52.5861648972587, "Status": "Active"}, {"Id": "8089", "Name": "TMU Site 6503/1 on link A1 southbound exit for A47; GPS Ref: 507511;299870; Southbound", "Description": "6503/1", "Longitude": -0.414547336273992, "Latitude": 52.5860327705355, "Status": "Active"}, {"Id": "8088", "Name": "TMU Site 6503/2 on link A1 southbound within the A47 junction; GPS Ref: 507499;299861; Southbound", "Description": "6503/2", "Longitude": -0.414727303795606, "Latitude": 52.5859542621935, "Status": "Active"}, {"Id": "8090", "Name": "TMU Site 6504/1 on link A1 northbound between A47 and B1081 near Stamford (south); GPS Ref: 506638;301788; Northbound", "Description": "6504/1", "Longitude": -0.42681090683493, "Latitude": 52.6034407158026, "Status": "Active"}, {"Id": "8091", "Name": "TMU Site 6505/1 on link A1 northbound between B1081 near Stamford (south) and A43; GPS Ref: 503139;305176; Northbound", "Description": "6505/1", "Longitude": -0.47740187429315, "Latitude": 52.6345618811409, "Status": "Active"}, {"Id": "8093", "Name": "TMU Site 6506/1 on link A1 southbound exit for A43; GPS Ref: 502214;305641; Southbound", "Description": "6506/1", "Longitude": -0.490921261017337, "Latitude": 52.6389155767986, "Status": "Active"}, {"Id": "8092", "Name": "TMU Site 6506/2 on link A1 southbound between A43 and B1081 near Stamford (south); GPS Ref: 502214;305628; Southbound", "Description": "6506/2", "Longitude": -0.490925279784949, "Latitude": 52.6387987480907, "Status": "Active"}, {"Id": "8158", "Name": "TMU Site 6604/1 on link A47 westbound between A1260 and A1; GPS Ref: 507967;299702; Westbound", "Description": "6604/1", "Longitude": -0.407874162157131, "Latitude": 52.5844328193545, "Status": "Active"}, {"Id": "8157", "Name": "TMU Site 6604/2 on link A47 eastbound between A1 and A1260; GPS Ref: 507968;299709; Eastbound", "Description": "6604/2", "Longitude": -0.407857130058527, "Latitude": 52.5844955262948, "Status": "Active"}, {"Id": "7810", "Name": "TMU Site 6783/1 on link A1 southbound exit for A1(M)/A605/A1139; GPS Ref: 513995;294435; Southbound", "Description": "6783/1", "Longitude": -0.320749460070192, "Latitude": 52.5358747862467, "Status": "Active"}, {"Id": "9483", "Name": "TMU Site 7156/1 on A47 westbound between B1167 near Thorney (east) and B1040; GPS Ref: 529777;304653; Westbound", "Description": "7156/1", "Longitude": -0.084203551966424, "Latitude": 52.6241542375248, "Status": "Active"}, {"Id": "9484", "Name": "TMU Site 7157/1 on A47 eastbound between B1040 and B1167 near Thorney (east); GPS Ref: 530130;304600; Eastbound", "Description": "7157/1", "Longitude": -0.07901256884177, "Latitude": 52.6235936185247, "Status": "Active"}], "E06000032": [], "E06000033": [], "E06000034": [{"Id": "6773", "Name": "TAME Site 30360529 on link A13 eastbound between A1306 near Aveley and M25/A282; GPS Ref: 555563;179765; Eastbound", "Description": "30360529", "Longitude": 0.239604406575579, "Latitude": 51.4954283366572, "Status": "Active"}, {"Id": "6774", "Name": "TAME Site 30360530 on link A13 westbound between M25/A282 and A1306 near Aveley; GPS Ref: 555613;179668; Westbound", "Description": "30360530", "Longitude": 0.240281351829569, "Latitude": 51.4945430602464, "Status": "Active"}, {"Id": "6794", "Name": "TAME Site 30360629 on link A282 southbound Dartford Crossing; GPS Ref: 557500;178220; Clockwise", "Description": "30360629", "Longitude": 0.266795965465735, "Latitude": 51.4810111593818, "Status": "Active"}, {"Id": "6795", "Name": "TAME Site 30360630 on link A282 southbound Dartford Crossing; GPS Ref: 557498;178221; Clockwise", "Description": "30360630", "Longitude": 0.266767632960991, "Latitude": 51.481020700423, "Status": "Active"}, {"Id": "6796", "Name": "TAME Site 30360631 on link A282 northbound Dartford Crossing; GPS Ref: 557477;178221; Anti-clockwise", "Description": "30360631", "Longitude": 0.266465463541498, "Latitude": 51.48102654223, "Status": "Active"}, {"Id": "6797", "Name": "TAME Site 30360632 on link A282 northbound Dartford Crossing; GPS Ref: 557478;178220; Anti-clockwise", "Description": "30360632", "Longitude": 0.266479407096291, "Latitude": 51.4810172794262, "Status": "Active"}, {"Id": "6525", "Name": "TAME Site 30360666 on link A13 westbound access from A126; GPS Ref: 558874;179783; Westbound", "Description": "30360666", "Longitude": 0.287268970389837, "Latitude": 51.4946700062387, "Status": "Active"}, {"Id": "6526", "Name": "TAME Site 30360667 on link A13 eastbound between M25/A282 and A126; GPS Ref: 558325;179948; Eastbound", "Description": "30360667", "Longitude": 0.279441071899256, "Latitude": 51.4963063330236, "Status": "Active"}, {"Id": "6527", "Name": "TAME Site 30360668 on link A13 westbound between A126 and M25/A282; GPS Ref: 558235;179962; Westbound", "Description": "30360668", "Longitude": 0.278151908992944, "Latitude": 51.4964572931895, "Status": "Active"}, {"Id": "7786", "Name": "TMU Site 6050/1 on link A13 westbound exit for A1306; GPS Ref: 555057;180166; Westbound", "Description": "6050/1", "Longitude": 0.232497302506156, "Latitude": 51.4991701930957, "Status": "Active"}, {"Id": "7785", "Name": "TMU Site 6050/2 on link A13 westbound within the A1306 junction near Aveley; GPS Ref: 555064;180193; Westbound", "Description": "6050/2", "Longitude": 0.23260991397359, "Latitude": 51.4994108608062, "Status": "Active"}, {"Id": "7782", "Name": "TMU Site 6055/1 on link A13 eastbound exit for M25/A282; GPS Ref: 557182;179919; Eastbound", "Description": "6055/1", "Longitude": 0.262976013679836, "Latitude": 51.4963644593671, "Status": "Active"}, {"Id": "7781", "Name": "TMU Site 6055/2 on link A13 eastbound within the M25/A282 junction; GPS Ref: 557184;179910; Eastbound", "Description": "6055/2", "Longitude": 0.263000796124577, "Latitude": 51.4962830420731, "Status": "Active"}, {"Id": "7784", "Name": "TMU Site 6056/1 on link A13 westbound exit for M25/A282; GPS Ref: 557806;180055; Westbound", "Description": "6056/1", "Longitude": 0.272018516305565, "Latitude": 51.4974126712477, "Status": "Active"}, {"Id": "7783", "Name": "TMU Site 6056/2 on link A13 westbound within the M25/A282 junction; GPS Ref: 557808;180075; Westbound", "Description": "6056/2", "Longitude": 0.272056241154629, "Latitude": 51.4975918049068, "Status": "Active"}, {"Id": "7780", "Name": "TMU Site 6057/1 on link A13 eastbound exit for A126; GPS Ref: 558844;179859; Eastbound", "Description": "6057/1", "Longitude": 0.286871353167785, "Latitude": 51.4953612496031, "Status": "Active"}, {"Id": "7779", "Name": "TMU Site 6057/2 on link A13 eastbound between A126 and A1012; GPS Ref: 558846;179835; Eastbound", "Description": "6057/2", "Longitude": 0.286889347001627, "Latitude": 51.4951450604947, "Status": "Active"}, {"Id": "7778", "Name": "TMU Site 6058/1 on link A13 westbound between A1012 and A126; GPS Ref: 559323;179785; Westbound", "Description": "6058/1", "Longitude": 0.293732359070931, "Latitude": 51.4945617296255, "Status": "Active"}, {"Id": "7787", "Name": "TMU Site 6059/1 on link A13 eastbound exit for A1012; GPS Ref: 560635;180204; Eastbound", "Description": "6059/1", "Longitude": 0.312806361881438, "Latitude": 51.4979552300202, "Status": "Active"}, {"Id": "7789", "Name": "TMU Site 6060/1 on link A13 westbound exit for A1012; GPS Ref: 561000;180557; Westbound", "Description": "6060/1", "Longitude": 0.318221060468772, "Latitude": 51.5010229316616, "Status": "Active"}, {"Id": "7788", "Name": "TMU Site 6060/2 on link A13 westbound within the A1012 junction; GPS Ref: 560981;180566; Westbound", "Description": "6060/2", "Longitude": 0.317951662330994, "Latitude": 51.5011091971924, "Status": "Active"}, {"Id": "7790", "Name": "TMU Site 6061/2 on link A13 eastbound within the A1089 junction; GPS Ref: 562728;181003; Eastbound", "Description": "6061/2", "Longitude": 0.343300338920492, "Latitude": 51.504535395479, "Status": "Active"}, {"Id": "7776", "Name": "TMU Site 6063/1 on A1089 northbound between Tilbury and A126; GPS Ref: 563181;177507; Northbound", "Description": "6063/1", "Longitude": 0.348207739756654, "Latitude": 51.4729972406839, "Status": "Active"}, {"Id": "7771", "Name": "TMU Site 6064/1 on link A1089 southbound between A13 and A126; GPS Ref: 563885;179567; Southbound", "Description": "6064/1", "Longitude": 0.359290077261242, "Latitude": 51.4913008389108, "Status": "Active"}, {"Id": "7770", "Name": "TMU Site 6165/1 on A1089 southbound between A126 and Tilbury; GPS Ref: 563182;177646; Southbound", "Description": "6165/1", "Longitude": 0.348286235028104, "Latitude": 51.474245705208, "Status": "Active"}, {"Id": "9063", "Name": "TMU Site 6182/2 on link A282 southbound within J31; GPS Ref: 557529;178685; Clockwise", "Description": "6182/2", "Longitude": 0.267420481335425, "Latitude": 51.4851809442905, "Status": "Active"}], "E06000035": [], "E06000036": [], "E06000037": [{"Id": "6336", "Name": "TAME Site 30360266 on link A34 northbound between A343 and A4; GPS Ref: 444420;164110; Northbound", "Description": "30360266", "Longitude": -1.36319924703539, "Latitude": 51.3743135366669, "Status": "Active"}, {"Id": "6337", "Name": "TAME Site 30360267 on link A34 southbound between A4 and A343; GPS Ref: 444388;164007; Southbound", "Description": "30360267", "Longitude": -1.36367180082121, "Latitude": 51.3733899477466, "Status": "Active"}, {"Id": "6363", "Name": "TAME Site 30360302 on link A34 southbound within the M4 junction; GPS Ref: 447637;172087; Southbound", "Description": "30360302", "Longitude": -1.31591498382767, "Latitude": 51.4457757332499, "Status": "Active"}, {"Id": "6364", "Name": "TAME Site 30360303 on link A34 southbound access from M4; GPS Ref: 447649;172087; Southbound", "Description": "30360303", "Longitude": -1.31574232575552, "Latitude": 51.445774725912, "Status": "Active"}, {"Id": "6365", "Name": "TAME Site 30360306 on link A34 northbound access from M4; GPS Ref: 447958;173350; Northbound", "Description": "30360306", "Longitude": -1.31112571155851, "Latitude": 51.4571043337639, "Status": "Active"}, {"Id": "6366", "Name": "TAME Site 30360307 on link A34 northbound at a minor junction between M4 and A4185; GPS Ref: 447955;173350; Northbound", "Description": "30360307", "Longitude": -1.3111688867014, "Latitude": 51.4571045873611, "Status": "Active"}, {"Id": "6367", "Name": "TAME Site 30360308 on link A34 southbound exit for M4; GPS Ref: 448030;173384; Southbound", "Description": "30360308", "Longitude": -1.3100849050785, "Latitude": 51.4574039365199, "Status": "Active"}, {"Id": "6368", "Name": "TAME Site 30360309 on link A34 southbound at a minor junction between A4185 and M4; GPS Ref: 448051;173490; Southbound", "Description": "30360309", "Longitude": -1.30976831905002, "Latitude": 51.4583552036011, "Status": "Active"}, {"Id": "7252", "Name": "TMU Site 5614/1 on link A34 northbound exit for A4; GPS Ref: 445035;168295; Northbound", "Description": "5614/1", "Longitude": -1.35383420887521, "Latitude": 51.4118936509925, "Status": "Active"}, {"Id": "7251", "Name": "TMU Site 5614/2 on link A34 northbound within the A4 junction; GPS Ref: 445044;168293; Northbound", "Description": "5614/2", "Longitude": -1.35370506075714, "Latitude": 51.4118749564221, "Status": "Active"}, {"Id": "7253", "Name": "TMU Site 5615/1 on A34 southbound exit for A4; GPS Ref: 445193;168353; Southbound", "Description": "5615/1", "Longitude": -1.35155511261127, "Latitude": 51.4124026274928, "Status": "Active"}, {"Id": "7254", "Name": "TMU Site 5615/2 on A34 southbound access from A4; GPS Ref: 445189;168350; Southbound", "Description": "5615/2", "Longitude": -1.3516130067009, "Latitude": 51.4123759710645, "Status": "Active"}, {"Id": "9266", "Name": "TMU Site 5615/3 on A34 southbound within the A4 junction; GPS Ref: 445130;168400; Southbound", "Description": "5615/3", "Longitude": -1.35245496351074, "Latitude": 51.4128302157441, "Status": "Active"}, {"Id": "9517", "Name": "TMU Site 5616/1 on link A34 northbound access from A339; GPS Ref: 447384;171550; Northbound", "Description": "5616/1", "Longitude": -1.31962685038834, "Latitude": 51.4409687276876, "Status": "Active"}, {"Id": "7256", "Name": "TMU Site 5616/2 on link A34 northbound between A4 and A339; GPS Ref: 447402;171542; Northbound", "Description": "5616/2", "Longitude": -1.31936895804289, "Latitude": 51.4408952965753, "Status": "Active"}, {"Id": "9518", "Name": "TMU Site 5617/1 on link A34 southbound exit for A339; GPS Ref: 447233;170918; Southbound", "Description": "5617/1", "Longitude": -1.32188327139035, "Latitude": 51.4352989699899, "Status": "Active"}, {"Id": "7255", "Name": "TMU Site 5617/2 on link A34 southbound between A339 and A4; GPS Ref: 447220;170929; Southbound", "Description": "5617/2", "Longitude": -1.32206881290483, "Latitude": 51.4353989528731, "Status": "Active"}, {"Id": "9032", "Name": "TMU Site 5675/1 on link A34 northbound between M4 and A4185; GPS Ref: 449296;180063; Northbound", "Description": "5675/1", "Longitude": -1.29093477174621, "Latitude": 51.5173459745146, "Status": "Active"}, {"Id": "9033", "Name": "TMU Site 5676/1 on link A34 southbound between A4185 and M4; GPS Ref: 449078;182709; Southbound", "Description": "5676/1", "Longitude": -1.29370856467573, "Latitude": 51.5411547923033, "Status": "Active"}, {"Id": "8908", "Name": "TMU Site 5730/1 on A34 southbound exit for M4; GPS Ref: 448028;173356; Southbound", "Description": "5730/1", "Longitude": -1.3101174794404, "Latitude": 51.457152357958, "Status": "Active"}, {"Id": "8909", "Name": "TMU Site 5730/2 on A34 southbound within the M4 junction; GPS Ref: 447966;173172; Southbound", "Description": "5730/2", "Longitude": -1.31103464347108, "Latitude": 51.4555032595859, "Status": "Active"}, {"Id": "9351", "Name": "TMU Site 7046/1 on link A34 northbound between M4 and A4185; GPS Ref: 448513;175493; Northbound", "Description": "7046/1", "Longitude": -1.30284505359691, "Latitude": 51.4763248306238, "Status": "Active"}, {"Id": "9352", "Name": "TMU Site 7047/1 on link A34 northbound exit for M4; GPS Ref: 447623;172127; Northbound", "Description": "7047/1", "Longitude": -1.31611105247925, "Latitude": 51.4461365487833, "Status": "Active"}, {"Id": "9353", "Name": "TMU Site 7047/2 on link A34 northbound within the M4 junction; GPS Ref: 447634;172121; Northbound", "Description": "7047/2", "Longitude": -1.31595358639132, "Latitude": 51.4460816795692, "Status": "Active"}], "E06000038": [], "E06000039": [], "E06000040": [{"Id": "6378", "Name": "TAME Site 30360331 on link A404(M) J9B southbound access; GPS Ref: 485913;180567; Southbound", "Description": "30360331", "Longitude": -0.763202133002971, "Latitude": 51.517503624994, "Status": "Active"}, {"Id": "6381", "Name": "TAME Site 30360334 on link A404(M) southbound between J9A and J9; GPS Ref: 488424;179010; Southbound", "Description": "30360334", "Longitude": -0.72741467013808, "Latitude": 51.5031209956776, "Status": "Active"}, {"Id": "6382", "Name": "TAME Site 30360335 on link A404(M) northbound between J9 and J9A; GPS Ref: 488245;179152; Northbound", "Description": "30360335", "Longitude": -0.72995741730063, "Latitude": 51.504425439056, "Status": "Active"}, {"Id": "7574", "Name": "TMU Site 5632/1 on link A308(M) eastbound between M4/A404(M) and A308; GPS Ref: 489001;179028; Eastbound", "Description": "5632/1", "Longitude": -0.719099141615601, "Latitude": 51.5031922387501, "Status": "Active"}, {"Id": "7575", "Name": "TMU Site 5633/1 on link A308(M) westbound between A308 and M4/A404(M); GPS Ref: 489137;179050; Westbound", "Description": "5633/1", "Longitude": -0.71713465957363, "Latitude": 51.5033685613965, "Status": "Active"}, {"Id": "7289", "Name": "TMU Site 5641/1 on link A404(M) J9A southbound exit; GPS Ref: 487966;179417; Southbound", "Description": "5641/1", "Longitude": -0.733910015864551, "Latitude": 51.5068510144393, "Status": "Active"}, {"Id": "7290", "Name": "TMU Site 5641/2 on A404(M) J9A southbound access; GPS Ref: 487999;179383; Southbound", "Description": "5641/2", "Longitude": -0.733443156235012, "Latitude": 51.5065402606385, "Status": "Active"}, {"Id": "7288", "Name": "TMU Site 5641/3 on A404(M) southbound within J9A; GPS Ref: 487966;179379; Southbound", "Description": "5641/3", "Longitude": -0.733919497319939, "Latitude": 51.506509422948, "Status": "Active"}, {"Id": "7294", "Name": "TMU Site 5642/1 on link A404(M) J9B northbound exit; GPS Ref: 485848;180585; Northbound", "Description": "5642/1", "Longitude": -0.764134272929418, "Latitude": 51.5176752952441, "Status": "Active"}, {"Id": "7293", "Name": "TMU Site 5642/2 on link A404(M) northbound within J9B; GPS Ref: 485868;180590; Northbound", "Description": "5642/2", "Longitude": -0.763844891377046, "Latitude": 51.5177172082589, "Status": "Active"}, {"Id": "7296", "Name": "TMU Site 5643/1 on link A404 southbound exit for A404(M)/A4; GPS Ref: 485766;180878; Southbound", "Description": "5643/1", "Longitude": -0.765244413450366, "Latitude": 51.5203216067397, "Status": "Active"}, {"Id": "7295", "Name": "TMU Site 5643/2 on link A404(M) southbound within J9B; GPS Ref: 485754;180873; Southbound", "Description": "5643/2", "Longitude": -0.765418538890038, "Latitude": 51.5202784785149, "Status": "Active"}, {"Id": "7278", "Name": "TMU Site 5644/1 on link A404 northbound within the A4130 junction; GPS Ref: 484414;181853; Northbound", "Description": "5644/1", "Longitude": -0.784492319521189, "Latitude": 51.529289729771, "Status": "Active"}, {"Id": "7280", "Name": "TMU Site 5645/1 on link A404 southbound access from A4130; GPS Ref: 484514;181740; Southbound", "Description": "5645/1", "Longitude": -0.783078173062537, "Latitude": 51.5282589746326, "Status": "Active"}, {"Id": "7279", "Name": "TMU Site 5645/2 on link A404 southbound within the A4130 junction; GPS Ref: 484495;181731; Southbound", "Description": "5645/2", "Longitude": -0.783354154178959, "Latitude": 51.5281809080382, "Status": "Active"}, {"Id": "7281", "Name": "TMU Site 5646/1 on link A404 northbound between A4130 and A308; GPS Ref: 484891;184370; Northbound", "Description": "5646/1", "Longitude": -0.777011709938955, "Latitude": 51.5518449214169, "Status": "Active"}, {"Id": "7282", "Name": "TMU Site 5647/1 on link A404 southbound between A4155 and A308; GPS Ref: 485717;185491; Southbound", "Description": "5647/1", "Longitude": -0.764828772667231, "Latitude": 51.5617975353038, "Status": "Active"}, {"Id": "7292", "Name": "TMU Site 5677/1 on link A404(M) J9A northbound exit; GPS Ref: 487685;179522; Northbound", "Description": "5677/1", "Longitude": -0.737931548310948, "Latitude": 51.5078384000992, "Status": "Active"}, {"Id": "7291", "Name": "TMU Site 5677/2 on link A404(M) northbound within J9A; GPS Ref: 487688;179553; Northbound", "Description": "5677/2", "Longitude": -0.73788062253094, "Latitude": 51.5081166031386, "Status": "Active"}, {"Id": "9219", "Name": "TMU Site 5748/1 on link A404 southbound between A308 and A4130; GPS Ref: 484886;184333; Southbound", "Description": "5748/1", "Longitude": -0.777092720204243, "Latitude": 51.5515130612177, "Status": "Active"}], "E06000041": [], "E06000042": [{"Id": "6648", "Name": "TAME Site 30360839 on link A5 northbound between A4146 near Bletchley (north) and A421; GPS Ref: 487474;235742; Northbound", "Description": "30360839", "Longitude": -0.726834051892149, "Latitude": 52.0132322277655, "Status": "Active"}, {"Id": "6649", "Name": "TAME Site 30360840 on link A5 southbound between A421 and A4146 near Bletchley (north); GPS Ref: 487474;235759; Southbound", "Description": "30360840", "Longitude": -0.726829708816411, "Latitude": 52.0133850346427, "Status": "Active"}, {"Id": "6650", "Name": "TAME Site 30360841 on link A5 northbound between A509 and A422; GPS Ref: 483081;238921; Northbound", "Description": "30360841", "Longitude": -0.790056859523423, "Latitude": 52.0424818752103, "Status": "Active"}, {"Id": "6651", "Name": "TAME Site 30360842 on link A5 southbound between A422 and A509; GPS Ref: 483089;238929; Southbound", "Description": "30360842", "Longitude": -0.789938296277414, "Latitude": 52.0425525898758, "Status": "Active"}, {"Id": "7864", "Name": "TMU Site 6849/1 on link A5 northbound between A421 and A509; GPS Ref: 485566;235886; Northbound", "Description": "6849/1", "Longitude": -0.754592918517565, "Latitude": 52.0148235814843, "Status": "Active"}, {"Id": "7863", "Name": "TMU Site 6850/1 on link A5 southbound between A509 and A421; GPS Ref: 484818;237135; Southbound", "Description": "6850/1", "Longitude": -0.765179970248239, "Latitude": 52.0261652947504, "Status": "Active"}, {"Id": "7865", "Name": "TMU Site 6851/1 on link A5 northbound between A422 and A422/A508; GPS Ref: 479177;241033; Northbound", "Description": "6851/1", "Longitude": -0.846478890105326, "Latitude": 52.0620379532971, "Status": "Active"}, {"Id": "7866", "Name": "TMU Site 6852/1 on link A5 southbound between A422/A508 and A422; GPS Ref: 479474;240807; Southbound", "Description": "6852/1", "Longitude": -0.842199891298716, "Latitude": 52.0599639140015, "Status": "Active"}, {"Id": "18069", "Name": "TMU Site 9972/1 on link A5 SB between A4146 and A505; GPS Ref: 489920;233037; Southbound", "Description": "9972/1", "Longitude": -0.691912309542315, "Latitude": 51.9885280211956, "Status": "Active"}, {"Id": "18070", "Name": "TMU Site 9972/2 on link A5 NB between A505 and A4146; GPS Ref: 489902;233017; Northbound", "Description": "9972/2", "Longitude": -0.692179597731369, "Latitude": 51.9883511612499, "Status": "Active"}, {"Id": "19779", "Name": "TMU Site 9984/1 on link A5 northbound between A4146 near Bletchley (south) and A4146 near Bletchley (north); GPS Ref: 488800;234152; Northbound", "Description": "9984/1", "Longitude": -0.707930058518564, "Latitude": 51.9987301610323, "Status": "Active"}, {"Id": "19780", "Name": "TMU Site 9984/2 on link A5 southbound between A4146 near Bletchley (north) and A4146 near Bletchley (south); GPS Ref: 488816;234158; Southbound", "Description": "9984/2", "Longitude": -0.707695511147647, "Latitude": 51.9987815385081, "Status": "Active"}], "E06000043": [{"Id": "6505", "Name": "TAME Site 30360188 on link A27 eastbound between A23 and A270 near Brighton (east); GPS Ref: 531045;109413; Eastbound", "Description": "30360188", "Longitude": -0.13900761005745, "Latitude": 50.8693687919956, "Status": "Active"}, {"Id": "6727", "Name": "TAME Site 30360454 on link A27 eastbound between A293 and A2038; GPS Ref: 527459;107764; Eastbound", "Description": "30360454", "Longitude": -0.190516109110148, "Latitude": 50.8553485532784, "Status": "Active"}, {"Id": "6728", "Name": "TAME Site 30360455 on link A27 westbound between A2038 and A293; GPS Ref: 527575;107757; Westbound", "Description": "30360455", "Longitude": -0.188871379400129, "Latitude": 50.8552600874181, "Status": "Active"}, {"Id": "6729", "Name": "TAME Site 30360456 on link A27 eastbound between A2038 and A23; GPS Ref: 529154;108807; Eastbound", "Description": "30360456", "Longitude": -0.166079928155681, "Latitude": 50.864347230857, "Status": "Active"}, {"Id": "6730", "Name": "TAME Site 30360457 on link A27 westbound between A23 and A2038; GPS Ref: 529271;108880; Westbound", "Description": "30360457", "Longitude": -0.16439252507552, "Latitude": 50.8649772221644, "Status": "Active"}, {"Id": "6733", "Name": "TAME Site 30360460 on link A27 eastbound between A270 near Brighton (east) and B2123; GPS Ref: 534515;108721; Eastbound", "Description": "30360460", "Longitude": -0.089977109306815, "Latitude": 50.862353446352, "Status": "Active"}, {"Id": "7746", "Name": "TMU Site 5772/2 on link A27 eastbound within the A23 junction before A23 southbound exit; GPS Ref: 529598;109152; Eastbound", "Description": "5772/2", "Longitude": -0.159652232027841, "Latitude": 50.8673487535167, "Status": "Active"}, {"Id": "7685", "Name": "TMU Site 5773/1 on link connector at A23/A27; GPS Ref: 529818;109269; Carriageway Connector", "Description": "5773/1", "Longitude": -0.156486164037225, "Latitude": 50.8683510119334, "Status": "Active"}, {"Id": "7684", "Name": "TMU Site 5773/2 on link connector at A23/A27; GPS Ref: 529809;109259; Southbound", "Description": "5773/2", "Longitude": -0.156617535584698, "Latitude": 50.8682631530127, "Status": "Active"}, {"Id": "7752", "Name": "TMU Site 5775/1 on link A27 westbound between A270 near Brighton (east) and A23; GPS Ref: 530741;109365; Westbound", "Description": "5775/1", "Longitude": -0.143342541764508, "Latitude": 50.8690061109408, "Status": "Active"}, {"Id": "7743", "Name": "TMU Site 5776/1 on link A27 eastbound access from A270 near Brighton (east); GPS Ref: 534253;108586; Eastbound", "Description": "5776/1", "Longitude": -0.093747232394584, "Latitude": 50.8612009449525, "Status": "Active"}, {"Id": "7742", "Name": "TMU Site 5776/2 on link A27 eastbound between A23 and A270 near Brighton (east); GPS Ref: 534266;108573; Eastbound", "Description": "5776/2", "Longitude": -0.093567388344581, "Latitude": 50.8610810919503, "Status": "Active"}, {"Id": "7741", "Name": "TMU Site 5777/1 on link A27 westbound exit for A270 near Brighton (east); GPS Ref: 534172;108472; Westbound", "Description": "5777/1", "Longitude": -0.094939230124531, "Latitude": 50.8601951409105, "Status": "Active"}, {"Id": "7740", "Name": "TMU Site 5777/2 on link A27 westbound between A270 near Brighton (east) and A23; GPS Ref: 534157;108492; Westbound", "Description": "5777/2", "Longitude": -0.095144912083138, "Latitude": 50.8603783682078, "Status": "Active"}, {"Id": "8936", "Name": "TMU Site 5984/1 on link A27 westbound exit for A23; GPS Ref: 530304;109365; Westbound", "Description": "5984/1", "Longitude": -0.149549342634097, "Latitude": 50.8691046329014, "Status": "Active"}, {"Id": "9048", "Name": "TMU Site 5990/1 on link A27 westbound exit for A2038; GPS Ref: 528596;108256; Westbound", "Description": "5990/1", "Longitude": -0.174198374784164, "Latitude": 50.8595190828391, "Status": "Active"}, {"Id": "9047", "Name": "TMU Site 5990/2 on link A27 westbound within the A2038 junction; GPS Ref: 528585;108272; Westbound", "Description": "5990/2", "Longitude": -0.174348965252615, "Latitude": 50.8596653320791, "Status": "Active"}, {"Id": "9050", "Name": "TMU Site 5991/1 on A27 eastbound exit at a minor junction between A23 and A270 near Brighton (east); GPS Ref: 532022;109630; Eastbound", "Description": "5991/1", "Longitude": -0.125052872311262, "Latitude": 50.8710971585725, "Status": "Active"}, {"Id": "9049", "Name": "TMU Site 5991/2 on A27 eastbound at a minor junction between A23 and A270 near Brighton (east); GPS Ref: 532019;109608; Eastbound", "Description": "5991/2", "Longitude": -0.12510341616905, "Latitude": 50.8709001136855, "Status": "Active"}], "E06000044": [{"Id": "9864", "Name": "MIDAS site at A27/9472A priority 1 on link 103014701; GPS Ref: 466355;104447; Eastbound", "Description": "A27/9472A", "Longitude": -1.05905889505509, "Latitude": 50.8357494593955, "Status": "Active"}, {"Id": "9982", "Name": "MIDAS site at A27/9476B priority 1 on link 103004001; GPS Ref: 466704;104291; Westbound", "Description": "A27/9476B", "Longitude": -1.05413165235902, "Latitude": 50.8343065322399, "Status": "Active"}, {"Id": "9960", "Name": "MIDAS site at A27/9481J priority 1 on link 103014901; GPS Ref: 467100;104289; Eastbound", "Description": "A27/9481J", "Longitude": -1.04850934449068, "Latitude": 50.8342427868392, "Status": "Active"}, {"Id": "9826", "Name": "MIDAS site at A27/9485A priority 1 on link 103014601; GPS Ref: 467602;104380; Eastbound", "Description": "A27/9485A", "Longitude": -1.04136477395217, "Latitude": 50.8350026978759, "Status": "Active"}, {"Id": "10101", "Name": "MIDAS site at A27/9485B priority 1 on link 103014301; GPS Ref: 467592;104361; Westbound", "Description": "A27/9485B", "Longitude": -1.04151024107839, "Latitude": 50.834833012116, "Status": "Active"}, {"Id": "10019", "Name": "MIDAS site at A27/9489L priority 1 on link 103014501; GPS Ref: 467951;104468; Westbound", "Description": "A27/9489L", "Longitude": -1.03639303200149, "Latitude": 50.8357531251942, "Status": "Active"}, {"Id": "9877", "Name": "MIDAS site at A27/9490B priority 1 on link 103014301; GPS Ref: 467954;104472; Westbound", "Description": "A27/9490B", "Longitude": -1.03634969755038, "Latitude": 50.8357887409029, "Status": "Active"}, {"Id": "9663", "Name": "MIDAS site at A27/9496A priority 1 on link 103014001; GPS Ref: 468517;104921; Eastbound", "Description": "A27/9496A", "Longitude": -1.02827184258724, "Latitude": 50.8397596348647, "Status": "Active"}, {"Id": "5859", "Name": "MIDAS site at A27/9499B priority 1 on link 103014401; GPS Ref: 468730;105081; Westbound", "Description": "A27/9499B", "Longitude": -1.02521711972061, "Latitude": 50.8411729609652, "Status": "Active"}], "E06000045": [], "E06000046": [], "E06000047": [{"Id": "8940", "Name": "TMU Site 8311/1 on link A66 westbound between A1(M) and A67 near Bowes; GPS Ref: 409546;512565; Westbound", "Description": "8311/1", "Longitude": -1.85409143747739, "Latitude": 54.5083181684319, "Status": "Active"}, {"Id": "8334", "Name": "TMU Site 9294/1 on link A1(M) J59 northbound exit; GPS Ref: 428347;520947; Northbound", "Description": "9294/1", "Longitude": -1.56293325614922, "Latitude": 54.582946082987, "Status": "Active"}, {"Id": "8333", "Name": "TMU Site 9294/2 on link A1(M) northbound within J59; GPS Ref: 428369;520931; Northbound", "Description": "9294/2", "Longitude": -1.56259441191259, "Latitude": 54.5828010741444, "Status": "Active"}, {"Id": "8336", "Name": "TMU Site 9295/1 on link A1(M) J59 southbound exit; GPS Ref: 428602;521160; Southbound", "Description": "9295/1", "Longitude": -1.55896732621348, "Latitude": 54.5848459322087, "Status": "Active"}, {"Id": "8335", "Name": "TMU Site 9295/2 on link A1(M) southbound within J59; GPS Ref: 428584;521170; Southbound", "Description": "9295/2", "Longitude": -1.55924486453903, "Latitude": 54.584936807837, "Status": "Active"}, {"Id": "8338", "Name": "TMU Site 9296/1 on link A1(M) J60 northbound exit; GPS Ref: 431467;528568; Northbound", "Description": "9296/1", "Longitude": -1.51384807002669, "Latitude": 54.6512474480203, "Status": "Active"}, {"Id": "8337", "Name": "TMU Site 9296/2 on link A1(M) northbound within J60; GPS Ref: 431486;528547; Northbound", "Description": "9296/2", "Longitude": -1.51355587639847, "Latitude": 54.6510575552621, "Status": "Active"}, {"Id": "8340", "Name": "TMU Site 9297/1 on link A1(M) J60 southbound exit; GPS Ref: 431753;528852; Southbound", "Description": "9297/1", "Longitude": -1.50938516601128, "Latitude": 54.6537817052137, "Status": "Active"}, {"Id": "8339", "Name": "TMU Site 9297/2 on link A1(M) southbound within J60; GPS Ref: 431736;528858; Southbound", "Description": "9297/2", "Longitude": -1.50964798506405, "Latitude": 54.6538366883997, "Status": "Active"}, {"Id": "8342", "Name": "TMU Site 9298/1 on link A1(M) J61 northbound exit; GPS Ref: 430901;537195; Northbound", "Description": "9298/1", "Longitude": -1.52170977155112, "Latitude": 54.7288066757863, "Status": "Active"}, {"Id": "8341", "Name": "TMU Site 9298/2 on link A1(M) northbound within J61; GPS Ref: 430932;537194; Northbound", "Description": "9298/2", "Longitude": -1.5212285460577, "Latitude": 54.7287957915003, "Status": "Active"}, {"Id": "8344", "Name": "TMU Site 9299/1 on link A1(M) J61 southbound exit; GPS Ref: 431133;537630; Southbound", "Description": "9299/1", "Longitude": -1.51806113718371, "Latitude": 54.7327014278779, "Status": "Active"}, {"Id": "8343", "Name": "TMU Site 9299/2 on link A1(M) southbound within J61; GPS Ref: 431115;537633; Southbound", "Description": "9299/2", "Longitude": -1.51834032672136, "Latitude": 54.7327294960817, "Status": "Active"}, {"Id": "8346", "Name": "TMU Site 9300/1 on link A1(M) J62 northbound exit; GPS Ref: 430326;544224; Northbound", "Description": "9300/1", "Longitude": -1.52990748839674, "Latitude": 54.79200517494, "Status": "Active"}, {"Id": "8345", "Name": "TMU Site 9300/2 on link A1(M) northbound within J62; GPS Ref: 430350;544222; Northbound", "Description": "9300/2", "Longitude": -1.52953447429346, "Latitude": 54.7919857571051, "Status": "Active"}, {"Id": "8348", "Name": "TMU Site 9301/1 on link A1(M) J62 southbound access; GPS Ref: 430409;544268; Southbound", "Description": "9301/1", "Longitude": -1.5286121784215, "Latitude": 54.7923955572495, "Status": "Active"}, {"Id": "8347", "Name": "TMU Site 9301/2 on link A1(M) southbound within J62; GPS Ref: 430381;544271; Southbound", "Description": "9301/2", "Longitude": -1.52904729603538, "Latitude": 54.792424205303, "Status": "Active"}, {"Id": "8350", "Name": "TMU Site 9302/1 on link A1(M) J63 northbound exit; GPS Ref: 428139;552234; Northbound", "Description": "9302/1", "Longitude": -1.56314315033057, "Latitude": 54.8641103247416, "Status": "Active"}, {"Id": "8349", "Name": "TMU Site 9302/2 on link A1(M) northbound within J63; GPS Ref: 428140;552267; Northbound", "Description": "9302/2", "Longitude": -1.56312436048879, "Latitude": 54.8644068052749, "Status": "Active"}, {"Id": "8352", "Name": "TMU Site 9303/1 on link A1(M) J63 southbound exit; GPS Ref: 427909;552811; Southbound", "Description": "9303/1", "Longitude": -1.56667064121027, "Latitude": 54.8693080391789, "Status": "Active"}, {"Id": "8351", "Name": "TMU Site 9303/2 on link A1(M) southbound within J63; GPS Ref: 427884;552801; Southbound", "Description": "9303/2", "Longitude": -1.56706113278681, "Latitude": 54.8692195668117, "Status": "Active"}, {"Id": "8706", "Name": "TMU Site 9306/1 on link A66 westbound between A1(M) and A67 near Bowes; GPS Ref: 400374;513640; Westbound", "Description": "9306/1", "Longitude": -1.99574221737658, "Latitude": 54.5180663561026, "Status": "Active"}, {"Id": "8707", "Name": "TMU Site 9306/2 on link A66 eastbound between A67 near Bowes and A1; GPS Ref: 400376;513644; Eastbound", "Description": "9306/2", "Longitude": -1.99571131935365, "Latitude": 54.5181023023032, "Status": "Active"}, {"Id": "9127", "Name": "TMU Site 9307/1 on link A66 eastbound between A685 and A67 near Bowes; GPS Ref: 398522;513483; Eastbound", "Description": "9307/1", "Longitude": -2.02434998944165, "Latitude": 54.5166529759559, "Status": "Active"}, {"Id": "8684", "Name": "TMU Site 9352/1 on link A19 southbound access from A1018/B1404; GPS Ref: 440136;549889; Southbound", "Description": "9352/1", "Longitude": -1.37657071638495, "Latitude": 54.8422224429985, "Status": "Active"},